time,counter,roll,pitch,yaw,roll_accel,pitch_accel,yaw_accel,xpos,ypos,altitude,roll_error,pitch_error,roll_input,pitch_input,yaw_input,vertical_input,front_left_motor_input,front_right_motor_input,rear_left_motor_input,rear_right_motor_input,Speed_X,Speed_Y,Speed_Z,status_takeoff,status_home,status_aruco,status_landing
2022/09/11 16:41:27,0,0.0,-0.07,0.0,0.0,-0.0,-0.0,0.15,0.07,0.11,-0.01,-0.28,-0.01,-2.16,-0.0,-0.44,0.0,0.0,0.0,0.0,18.7,8.75,13.73,0.0,0.0,0.0,0.0
2022/09/11 16:41:27,1,0.0,-0.07,0.0,0.0,-0.0,-0.0,0.15,0.07,0.11,-0.01,-0.28,-0.01,-2.16,-0.0,-0.04,0.0,0.0,0.0,0.0,-0.0,-0.0,-0.16,0.0,0.0,0.0,0.0
2022/09/11 16:41:27,2,0.0,-0.07,0.0,0.0,-0.0,-0.0,0.15,0.07,0.11,-0.01,-0.28,-0.01,-2.16,-0.0,-0.03,0.0,0.0,0.0,0.0,-0.0,-0.0,-0.23,0.0,0.0,0.0,0.0
2022/09/11 16:41:27,3,0.0,-0.07,0.0,0.0,-0.0,-0.0,0.15,0.07,0.1,-0.01,-0.28,-0.01,-2.16,-0.0,0.38,0.0,0.0,0.0,0.0,-0.0,-0.0,-0.31,0.0,0.0,0.0,0.0
2022/09/11 16:41:27,4,0.0,-0.07,0.0,0.0,-0.0,-0.0,0.15,0.07,0.1,-0.01,-0.28,-0.01,-2.16,-0.0,0.59,0.0,0.0,0.0,0.0,-0.0,-0.0,-0.39,0.0,0.0,0.0,0.0
2022/09/11 16:41:27,5,0.0,-0.07,0.0,0.0,-0.0,-0.0,0.15,0.07,0.1,-0.01,-0.28,-0.01,-2.16,0.0,1.5,0.0,0.0,0.0,0.0,-0.0,-0.0,-0.46,0.0,0.0,0.0,0.0
2022/09/11 16:41:27,6,0.0,-0.07,0.0,0.0,-0.0,-0.0,0.15,0.07,0.09,-0.01,-0.28,-0.01,-2.16,-0.0,0.54,0.0,0.0,0.0,0.0,-0.0,-0.0,-0.54,0.0,0.0,0.0,0.0
2022/09/11 16:41:27,7,0.0,-0.07,0.0,0.0,-0.0,-0.0,0.15,0.07,0.09,-0.01,-0.28,-0.01,-2.16,-0.0,1.23,0.0,0.0,0.0,0.0,-0.0,-0.0,-0.62,0.0,0.0,0.0,0.0
2022/09/11 16:41:27,8,0.0,-0.07,0.0,0.0,-0.0,-0.0,0.15,0.07,0.08,-0.01,-0.28,-0.01,-2.16,0.0,1.5,0.0,0.0,0.0,0.0,-0.0,-0.0,-0.69,0.0,0.0,0.0,0.0
2022/09/11 16:41:27,9,0.0,-0.07,0.0,0.0,-0.08,-0.0,0.15,0.07,0.09,-0.01,-0.28,-0.01,-2.72,0.0,-0.92,0.0,0.0,0.0,0.0,-0.01,-0.0,0.33,0.0,0.0,0.0,0.0
2022/09/11 16:41:27,10,0.0,-0.07,0.0,0.0,-0.08,-0.0,0.15,0.07,0.09,-0.01,-0.28,-0.01,-2.73,0.0,-0.98,0.0,0.0,0.0,0.0,-0.01,-0.0,0.25,0.0,0.0,0.0,0.0
2022/09/11 16:41:27,11,0.0,-0.07,0.0,0.0,-0.08,-0.0,0.15,0.07,0.09,-0.01,-0.28,-0.01,-2.75,0.0,-1.28,0.0,0.0,0.0,0.0,-0.0,-0.0,0.17,0.0,0.0,0.0,0.0
2022/09/11 16:41:27,12,0.0,-0.07,0.0,0.0,-0.07,-0.0,0.15,0.07,0.09,-0.01,-0.28,-0.01,-2.77,0.0,-0.59,0.0,0.0,0.0,0.0,-0.0,-0.0,0.09,0.0,0.0,0.0,0.0
2022/09/11 16:41:27,13,0.0,-0.07,0.0,0.0,-0.07,-0.0,0.15,0.07,0.09,-0.01,-0.28,-0.01,-2.79,0.0,-0.44,0.0,0.0,0.0,0.0,-0.0,-0.0,0.01,0.0,0.0,0.0,0.0
2022/09/11 16:41:27,14,0.0,-0.07,0.0,0.0,-0.07,-0.0,0.15,0.07,0.09,-0.01,-0.28,-0.01,-2.81,0.0,-0.04,0.0,0.0,0.0,0.0,-0.0,-0.0,-0.07,0.0,0.0,0.0,0.0
2022/09/11 16:41:27,15,0.0,-0.07,0.0,0.0,-0.07,-0.0,0.15,0.07,0.09,-0.01,-0.28,-0.01,-2.83,0.0,0.41,0.0,0.0,0.0,0.0,-0.0,-0.0,-0.14,0.0,0.0,0.0,0.0
2022/09/11 16:41:27,16,0.0,-0.07,0.0,0.0,-0.07,-0.0,0.15,0.07,0.09,-0.01,-0.28,-0.01,-2.84,0.0,0.75,0.0,0.0,0.0,0.0,-0.0,-0.0,-0.22,0.0,0.0,0.0,0.0
2022/09/11 16:41:27,17,0.0,-0.05,0.0,-0.0,2.44,-0.0,0.15,0.07,0.08,-0.01,-0.28,-0.01,15.45,-0.0,0.73,0.0,0.0,0.0,0.0,0.16,0.0,-0.21,0.0,0.0,0.0,0.0
2022/09/11 16:41:27,18,0.0,-0.06,0.0,0.0,-1.11,-0.0,0.15,0.07,0.09,-0.01,-0.28,-0.01,-9.75,0.0,-0.93,0.0,0.0,0.0,0.0,-0.07,-0.0,0.11,0.0,0.0,0.0,0.0
2022/09/11 16:41:27,19,0.0,-0.07,0.0,0.0,-1.11,0.0,0.15,0.07,0.09,-0.01,-0.28,-0.01,-10.02,-0.0,-0.5,0.0,0.0,0.0,0.0,-0.07,-0.0,0.03,0.0,0.0,0.0,0.0
2022/09/11 16:41:27,20,0.0,-0.07,0.0,-0.0,0.27,0.0,0.15,0.07,0.09,-0.01,-0.28,-0.01,-0.33,-0.0,-0.44,0.0,0.0,0.0,0.0,0.02,0.0,0.02,0.0,0.0,0.0,0.0
2022/09/11 16:41:27,21,0.0,-0.07,0.0,-0.0,0.03,0.0,0.15,0.07,0.09,-0.01,-0.28,-0.01,-2.0,-0.0,-0.36,0.0,0.0,0.0,0.0,0.0,0.0,0.0,0.0,0.0,0.0,0.0
2022/09/11 16:41:27,22,0.0,-0.07,0.0,-0.0,0.02,0.0,0.15,0.07,0.09,-0.01,-0.28,-0.01,-2.06,-0.0,-0.36,0.0,0.0,0.0,0.0,0.0,0.0,0.0,0.0,0.0,0.0,0.0
2022/09/11 16:41:28,23,0.0,-0.07,0.0,-0.0,0.01,0.0,0.15,0.07,0.09,-0.01,-0.28,-0.01,-2.08,-0.0,-0.36,0.0,0.0,0.0,0.0,0.0,0.0,0.0,0.0,0.0,0.0,0.0
2022/09/11 16:41:28,24,0.0,-0.07,0.0,-0.0,0.01,0.0,0.15,0.07,0.09,-0.01,-0.28,-0.01,-2.1,-0.0,-0.36,0.0,0.0,0.0,0.0,0.0,0.0,0.0,0.0,0.0,0.0,0.0
2022/09/11 16:41:28,25,0.0,-0.07,0.0,-0.0,0.01,0.0,0.15,0.07,0.09,-0.01,-0.28,-0.01,-2.11,-0.0,-0.35,0.0,0.0,0.0,0.0,0.0,0.0,0.0,0.0,0.0,0.0,0.0
2022/09/11 16:41:28,26,0.0,-0.07,0.0,-0.0,0.01,0.0,0.15,0.07,0.09,-0.01,-0.28,-0.01,-2.12,-0.0,-0.35,0.0,0.0,0.0,0.0,0.0,0.0,0.0,0.0,0.0,0.0,0.0
2022/09/11 16:41:28,27,0.0,-0.07,0.0,-0.0,0.01,0.0,0.15,0.07,0.09,-0.01,-0.28,-0.01,-2.13,-0.0,-0.35,0.0,0.0,0.0,0.0,0.0,0.0,0.0,0.0,0.0,0.0,0.0
2022/09/11 16:41:28,28,0.0,-0.07,0.0,-0.0,0.0,0.0,0.15,0.07,0.09,-0.01,-0.28,-0.01,-2.14,-0.0,-0.35,0.0,0.0,0.0,0.0,0.0,0.0,0.0,0.0,0.0,0.0,0.0
2022/09/11 16:41:28,29,0.0,-0.07,0.0,-0.0,0.0,0.0,0.15,0.07,0.09,-0.01,-0.28,-0.01,-2.14,-0.0,-0.35,0.0,0.0,0.0,0.0,0.0,0.0,0.0,0.0,0.0,0.0,0.0
2022/09/11 16:41:28,30,0.0,-0.07,0.0,-0.0,0.0,0.0,0.15,0.07,0.09,-0.01,-0.28,-0.01,-2.14,-0.0,-0.35,0.0,0.0,0.0,0.0,0.0,0.0,0.0,0.0,0.0,0.0,0.0
2022/09/11 16:41:28,31,0.0,-0.07,0.0,-0.0,0.0,0.0,0.15,0.07,0.09,-0.01,-0.28,-0.01,-2.15,-0.0,-0.35,0.0,0.0,0.0,0.0,0.0,0.0,0.0,0.0,0.0,0.0,0.0
2022/09/11 16:41:28,32,0.0,-0.07,0.0,-0.0,0.0,0.0,0.15,0.07,0.09,-0.01,-0.28,-0.01,-2.15,-0.0,-0.35,0.0,0.0,0.0,0.0,0.0,0.0,0.0,0.0,0.0,0.0,0.0
2022/09/11 16:41:28,33,0.0,-0.07,0.0,-0.0,0.0,0.0,0.15,0.07,0.09,-0.01,-0.28,-0.01,-2.15,-0.0,1.5,67.86,67.84,72.16,72.14,0.0,0.0,0.0,1.0,0.0,0.0,0.0
2022/09/11 16:41:28,34,0.0,-0.07,0.0,-0.0,0.0,0.0,0.15,0.07,0.09,-0.01,-0.28,-0.01,-2.15,-0.0,1.5,67.86,67.84,72.16,72.14,0.0,0.0,0.0,1.0,0.0,0.0,0.0
2022/09/11 16:41:28,35,0.0,-0.07,0.0,-0.0,0.0,0.0,0.15,0.07,0.09,-0.01,-0.28,-0.01,-2.16,-0.0,1.5,67.85,67.83,72.17,72.15,0.0,0.0,0.0,1.0,0.0,0.0,0.0
2022/09/11 16:41:28,36,0.0,-0.07,0.0,-0.0,0.0,0.0,0.15,0.07,0.09,-0.01,-0.28,-0.01,-2.16,-0.0,1.5,67.85,67.83,72.17,72.15,0.0,0.0,0.0,1.0,0.0,0.0,0.0
2022/09/11 16:41:28,37,0.0,-0.07,0.0,-0.0,0.0,0.0,0.15,0.07,0.09,-0.01,-0.28,-0.01,-2.16,-0.0,1.5,67.85,67.83,72.17,72.15,0.0,0.0,0.0,1.0,0.0,0.0,0.0
2022/09/11 16:41:28,38,0.0,-0.07,0.0,-0.0,0.0,0.0,0.15,0.07,0.09,-0.01,-0.28,-0.01,-2.16,-0.0,1.5,67.85,67.83,72.17,72.15,0.0,0.0,0.0,1.0,0.0,0.0,0.0
2022/09/11 16:41:28,39,0.0,-0.07,0.0,-0.0,0.0,0.0,0.15,0.07,0.09,-0.01,-0.28,-0.01,-2.16,-0.0,1.5,67.85,67.83,72.17,72.15,0.0,0.0,0.0,1.0,0.0,0.0,0.0
2022/09/11 16:41:28,40,0.0,-0.07,0.0,-0.0,0.0,0.0,0.15,0.07,0.09,-0.01,-0.28,-0.01,-2.16,-0.0,1.5,67.85,67.83,72.17,72.15,0.0,0.0,0.0,1.0,0.0,0.0,0.0
2022/09/11 16:41:28,41,0.0,-0.07,0.0,-0.0,0.0,0.0,0.15,0.07,0.09,-0.01,-0.28,-0.01,-2.16,-0.0,1.5,67.85,67.83,72.17,72.15,0.0,0.0,0.0,1.0,0.0,0.0,0.0
2022/09/11 16:41:28,42,0.0,-0.07,0.0,-0.0,0.0,0.0,0.15,0.07,0.09,-0.01,-0.28,-0.01,-2.16,-0.0,1.5,67.85,67.83,72.17,72.15,0.0,0.0,0.0,1.0,0.0,0.0,0.0
2022/09/11 16:41:28,43,0.0,-0.07,0.0,0.0,0.0,0.0,0.15,0.07,0.09,-0.01,-0.28,-0.01,-2.16,-0.0,1.5,67.85,67.83,72.17,72.15,0.0,-0.0,0.0,1.0,0.0,0.0,0.0
2022/09/11 16:41:28,44,0.0,-0.07,0.0,0.0,0.0,-0.0,0.15,0.07,0.09,-0.01,-0.28,-0.01,-2.16,-0.0,1.5,67.85,67.83,72.17,72.15,0.0,-0.0,0.0,1.0,0.0,0.0,0.0
2022/09/11 16:41:28,45,0.0,-0.07,0.0,0.0,0.0,-0.0,0.15,0.07,0.09,-0.01,-0.28,-0.01,-2.16,-0.0,1.5,67.85,67.83,72.17,72.15,0.0,-0.0,0.0,1.0,0.0,0.0,0.0
2022/09/11 16:41:28,46,0.0,-0.07,0.0,0.0,0.0,-0.0,0.15,0.07,0.09,-0.01,-0.28,-0.01,-2.16,-0.0,1.5,67.85,67.83,72.17,72.15,0.0,-0.0,0.0,1.0,0.0,0.0,0.0
2022/09/11 16:41:28,47,0.0,-0.07,0.0,0.0,0.0,-0.0,0.15,0.07,0.09,-0.01,-0.28,-0.01,-2.16,-0.0,1.5,67.85,67.83,72.17,72.15,0.0,-0.0,0.0,1.0,0.0,0.0,0.0
2022/09/11 16:41:28,48,0.0,-0.07,0.0,0.0,0.0,-0.0,0.15,0.07,0.09,-0.01,-0.28,-0.01,-2.16,-0.0,1.5,67.85,67.83,72.17,72.15,0.0,-0.0,0.0,1.0,0.0,0.0,0.0
2022/09/11 16:41:28,49,0.0,-0.07,0.0,0.0,0.0,-0.0,0.15,0.07,0.09,-0.01,-0.28,-0.01,-2.16,-0.0,1.5,67.85,67.83,72.17,72.15,0.0,-0.0,0.0,1.0,0.0,0.0,0.0
2022/09/11 16:41:28,50,0.0,-0.07,0.0,0.0,0.0,-0.0,0.15,0.07,0.09,-0.01,-0.28,-0.01,-2.16,-0.0,1.5,67.85,67.83,72.17,72.15,0.0,-0.0,0.0,1.0,0.0,0.0,0.0
2022/09/11 16:41:28,51,0.0,-0.07,0.0,0.0,0.0,-0.0,0.15,0.07,0.09,-0.01,-0.28,-0.01,-2.16,-0.0,1.5,67.85,67.83,72.17,72.15,0.0,-0.0,0.0,1.0,0.0,0.0,0.0
2022/09/11 16:41:28,52,0.0,-0.07,0.0,0.0,0.0,-0.0,0.15,0.07,0.09,-0.01,-0.28,-0.01,-2.16,-0.0,1.5,67.85,67.83,72.17,72.15,0.0,-0.0,0.0,1.0,0.0,0.0,0.0
2022/09/11 16:41:28,53,0.0,-0.07,0.0,0.0,0.0,-0.0,0.15,0.07,0.09,-0.01,-0.28,-0.01,-2.16,-0.0,1.5,67.85,67.83,72.17,72.15,0.0,-0.0,0.0,1.0,0.0,0.0,0.0
2022/09/11 16:41:28,54,0.0,-0.07,0.0,0.0,0.0,-0.0,0.15,0.07,0.09,-0.01,-0.28,-0.01,-2.16,-0.0,1.5,67.85,67.83,72.17,72.15,0.0,-0.0,0.0,1.0,0.0,0.0,0.0
2022/09/11 16:41:28,55,0.0,-0.07,0.0,0.0,0.0,-0.0,0.15,0.07,0.09,-0.01,-0.28,-0.01,-2.16,-0.0,1.5,67.85,67.83,72.17,72.15,0.0,-0.0,0.0,1.0,0.0,0.0,0.0
2022/09/11 16:41:28,56,0.0,-0.07,0.0,0.0,0.0,0.0,0.15,0.07,0.09,-0.01,-0.28,-0.01,-2.16,-0.0,1.5,67.85,67.83,72.17,72.15,0.0,0.0,0.0,1.0,0.0,0.0,0.0
2022/09/11 16:41:28,57,0.0,-0.07,0.0,-0.0,0.0,0.0,0.15,0.07,0.09,-0.01,-0.28,-0.01,-2.16,-0.0,1.5,67.85,67.83,72.17,72.15,0.0,0.0,0.0,1.0,0.0,0.0,0.0
2022/09/11 16:41:28,58,0.0,-0.07,0.0,-0.0,0.0,0.0,0.15,0.07,0.09,-0.01,-0.28,-0.01,-2.16,-0.0,1.5,67.85,67.83,72.17,72.15,0.0,0.0,0.0,1.0,0.0,0.0,0.0
2022/09/11 16:41:28,59,0.0,-0.07,0.0,-0.0,0.0,0.0,0.15,0.07,0.09,-0.01,-0.28,-0.01,-2.16,-0.0,1.5,67.85,67.83,72.17,72.15,0.0,0.0,0.0,1.0,0.0,0.0,0.0
2022/09/11 16:41:28,60,0.0,-0.07,0.0,-0.0,0.0,0.0,0.15,0.07,0.09,-0.01,-0.28,-0.01,-2.16,-0.0,1.5,67.85,67.83,72.17,72.15,0.0,0.0,0.0,1.0,0.0,0.0,0.0
2022/09/11 16:41:28,61,0.0,-0.07,0.0,-0.0,0.0,0.0,0.15,0.07,0.09,-0.01,-0.28,-0.01,-2.16,-0.0,1.5,67.85,67.83,72.17,72.15,0.0,0.0,0.0,1.0,0.0,0.0,0.0
2022/09/11 16:41:28,62,0.0,-0.07,0.0,-0.0,0.0,0.0,0.15,0.07,0.09,-0.01,-0.28,-0.01,-2.16,-0.0,1.5,67.85,67.83,72.17,72.15,0.0,0.0,0.0,1.0,0.0,0.0,0.0
2022/09/11 16:41:28,63,0.0,-0.07,0.0,-0.0,0.0,0.0,0.15,0.07,0.09,-0.01,-0.28,-0.01,-2.16,-0.0,1.5,67.85,67.83,72.17,72.15,0.0,0.0,0.0,1.0,0.0,0.0,0.0
2022/09/11 16:41:28,64,0.0,-0.07,0.0,-0.0,0.0,0.0,0.15,0.07,0.09,-0.01,-0.28,-0.01,-2.16,-0.0,1.5,67.85,67.83,72.17,72.15,0.0,0.0,0.0,1.0,0.0,0.0,0.0
2022/09/11 16:41:28,65,0.0,-0.07,0.0,-0.0,0.0,0.0,0.15,0.07,0.09,-0.01,-0.28,-0.01,-2.16,-0.0,1.5,67.85,67.83,72.17,72.15,0.0,0.0,0.0,1.0,0.0,0.0,0.0
2022/09/11 16:41:28,66,0.0,-0.07,0.0,-0.0,0.0,0.0,0.15,0.07,0.09,-0.01,-0.28,-0.01,-2.16,-0.0,1.5,67.85,67.83,72.17,72.15,0.0,0.0,0.0,1.0,0.0,0.0,0.0
2022/09/11 16:41:28,67,0.0,-0.07,0.0,-0.0,0.0,0.0,0.15,0.07,0.09,-0.01,-0.28,-0.01,-2.16,-0.0,1.5,67.85,67.83,72.17,72.15,0.0,0.0,0.0,1.0,0.0,0.0,0.0
2022/09/11 16:41:28,68,0.0,-0.07,0.0,-0.0,0.0,0.0,0.15,0.07,0.09,-0.01,-0.28,-0.01,-2.16,-0.0,1.5,67.85,67.83,72.17,72.15,0.0,0.0,0.0,1.0,0.0,0.0,0.0
2022/09/11 16:41:28,69,0.0,-0.07,0.0,-0.0,0.0,0.0,0.15,0.07,0.09,-0.01,-0.28,-0.01,-2.16,-0.0,1.5,67.85,67.83,72.17,72.15,0.0,0.0,0.0,1.0,0.0,0.0,0.0
2022/09/11 16:41:28,70,0.0,-0.07,0.0,-0.0,0.0,0.0,0.15,0.07,0.09,-0.01,-0.28,-0.01,-2.16,-0.0,1.5,67.85,67.83,72.17,72.15,0.0,0.0,0.0,1.0,0.0,0.0,0.0
2022/09/11 16:41:28,71,0.0,-0.07,0.0,-0.0,0.0,0.0,0.15,0.07,0.09,-0.01,-0.28,-0.01,-2.16,-0.0,1.5,67.85,67.83,72.17,72.15,0.0,0.0,0.0,1.0,0.0,0.0,0.0
2022/09/11 16:41:28,72,0.0,-0.07,0.0,-0.0,0.0,0.0,0.15,0.07,0.09,-0.01,-0.28,-0.01,-2.16,-0.0,1.5,67.85,67.83,72.17,72.15,0.0,0.0,0.0,1.0,0.0,0.0,0.0
2022/09/11 16:41:28,73,0.0,-0.07,0.0,-0.0,0.0,0.0,0.15,0.07,0.09,-0.01,-0.28,-0.01,-2.16,-0.0,1.5,67.85,67.83,72.17,72.15,0.0,0.0,0.0,1.0,0.0,0.0,0.0
2022/09/11 16:41:28,74,0.0,-0.07,0.0,-0.0,0.0,0.0,0.15,0.07,0.09,-0.01,-0.28,-0.01,-2.16,-0.0,1.5,67.85,67.83,72.17,72.15,0.0,0.0,0.0,1.0,0.0,0.0,0.0
2022/09/11 16:41:28,75,0.0,-0.07,0.0,-0.0,0.0,0.0,0.15,0.07,0.09,-0.01,-0.28,-0.01,-2.16,-0.0,1.5,67.85,67.83,72.17,72.15,0.0,0.0,0.0,1.0,0.0,0.0,0.0
2022/09/11 16:41:29,76,0.0,-0.07,0.0,-0.0,0.0,0.0,0.15,0.07,0.09,-0.01,-0.28,-0.01,-2.16,-0.0,1.5,67.85,67.83,72.17,72.15,0.0,0.0,0.0,1.0,0.0,0.0,0.0
2022/09/11 16:41:29,77,0.0,-0.07,0.0,-0.0,0.0,0.0,0.15,0.07,0.09,-0.01,-0.28,-0.01,-2.16,-0.0,1.5,67.85,67.83,72.17,72.15,0.0,0.0,0.0,1.0,0.0,0.0,0.0
2022/09/11 16:41:29,78,0.0,-0.07,0.0,-0.0,0.0,0.0,0.15,0.07,0.09,-0.01,-0.28,-0.01,-2.16,-0.0,1.5,67.85,67.83,72.17,72.15,0.0,0.0,0.0,1.0,0.0,0.0,0.0
2022/09/11 16:41:29,79,0.0,-0.07,0.0,-0.0,0.0,0.0,0.15,0.07,0.09,-0.01,-0.28,-0.01,-2.16,-0.0,1.5,67.85,67.83,72.17,72.15,0.0,0.0,0.0,1.0,0.0,0.0,0.0
2022/09/11 16:41:29,80,0.0,-0.07,0.0,-0.0,0.0,0.0,0.15,0.07,0.09,-0.01,-0.28,-0.01,-2.16,-0.0,1.5,67.85,67.83,72.17,72.15,0.0,0.0,0.0,1.0,0.0,0.0,0.0
2022/09/11 16:41:29,81,0.0,-0.07,0.0,-0.0,0.0,0.0,0.15,0.07,0.09,-0.01,-0.28,-0.01,-2.16,-0.0,1.5,67.85,67.83,72.17,72.15,0.0,0.0,0.0,1.0,0.0,0.0,0.0
2022/09/11 16:41:29,82,0.0,-0.07,0.0,-0.0,0.0,0.0,0.15,0.07,0.09,-0.01,-0.28,-0.01,-2.16,-0.0,1.5,67.85,67.83,72.17,72.15,0.0,0.0,0.0,1.0,0.0,0.0,0.0
2022/09/11 16:41:29,83,0.0,-0.07,0.0,-0.0,0.0,0.0,0.15,0.07,0.09,-0.01,-0.28,-0.01,-2.16,-0.0,1.5,67.85,67.83,72.17,72.15,0.0,0.0,0.0,1.0,0.0,0.0,0.0
2022/09/11 16:41:29,84,0.0,-0.07,0.0,-0.0,0.0,0.0,0.15,0.07,0.09,-0.01,-0.28,-0.01,-2.16,-0.0,1.5,67.85,67.83,72.17,72.15,0.0,0.0,0.0,1.0,0.0,0.0,0.0
2022/09/11 16:41:29,85,0.0,-0.07,0.0,-0.0,0.0,0.0,0.15,0.07,0.09,-0.01,-0.28,-0.01,-2.16,-0.0,1.5,67.85,67.83,72.17,72.15,0.0,0.0,0.0,1.0,0.0,0.0,0.0
2022/09/11 16:41:29,86,0.0,-0.07,0.0,-0.0,0.0,0.0,0.15,0.07,0.09,-0.01,-0.28,-0.01,-2.16,-0.0,1.5,67.85,67.83,72.17,72.15,0.0,0.0,0.0,1.0,0.0,0.0,0.0
2022/09/11 16:41:29,87,0.0,-0.07,0.0,-0.0,0.0,0.0,0.15,0.07,0.09,-0.01,-0.28,-0.01,-2.16,-0.0,1.5,67.85,67.83,72.17,72.15,0.0,0.0,0.0,1.0,0.0,0.0,0.0
2022/09/11 16:41:29,88,0.0,-0.07,0.0,-0.0,0.0,0.0,0.15,0.07,0.09,-0.01,-0.28,-0.01,-2.16,-0.0,1.5,67.85,67.83,72.17,72.15,0.0,0.0,0.0,1.0,0.0,0.0,0.0
2022/09/11 16:41:29,89,0.0,-0.07,0.0,-0.0,0.0,0.0,0.15,0.07,0.09,-0.01,-0.28,-0.01,-2.16,-0.0,1.5,67.85,67.83,72.17,72.15,0.0,0.0,0.0,1.0,0.0,0.0,0.0
2022/09/11 16:41:29,90,0.0,-0.07,0.0,-0.0,0.0,0.0,0.15,0.07,0.09,-0.01,-0.28,-0.01,-2.16,-0.0,1.5,67.85,67.83,72.17,72.15,0.0,0.0,0.0,1.0,0.0,0.0,0.0
2022/09/11 16:41:29,91,0.0,-0.07,0.0,-0.0,0.0,0.0,0.15,0.07,0.09,-0.01,-0.28,-0.01,-2.16,-0.0,1.5,67.85,67.83,72.17,72.15,0.0,0.0,0.0,1.0,0.0,0.0,0.0
2022/09/11 16:41:29,92,0.0,-0.07,0.0,-0.0,0.0,0.0,0.15,0.07,0.09,-0.01,-0.28,-0.01,-2.16,-0.0,1.5,67.85,67.83,72.17,72.15,0.0,0.0,0.0,1.0,0.0,0.0,0.0
2022/09/11 16:41:29,93,0.0,-0.07,0.0,-0.0,0.0,0.0,0.15,0.07,0.09,-0.01,-0.28,-0.01,-2.16,-0.0,1.5,67.85,67.83,72.17,72.15,0.0,0.0,0.0,1.0,0.0,0.0,0.0
2022/09/11 16:41:29,94,0.0,-0.07,0.0,-0.0,0.0,0.0,0.15,0.07,0.09,-0.01,-0.28,-0.01,-2.16,-0.0,1.5,67.85,67.83,72.17,72.15,0.0,0.0,0.0,1.0,0.0,0.0,0.0
2022/09/11 16:41:29,95,0.0,-0.07,0.0,-0.0,0.0,0.0,0.15,0.07,0.09,-0.01,-0.28,-0.01,-2.16,-0.0,1.5,67.85,67.83,72.17,72.15,0.0,0.0,0.0,1.0,0.0,0.0,0.0
2022/09/11 16:41:29,96,0.0,-0.07,0.0,-0.0,0.0,0.0,0.15,0.07,0.09,-0.01,-0.28,-0.01,-2.16,-0.0,1.5,67.85,67.83,72.17,72.15,0.0,0.0,0.0,1.0,0.0,0.0,0.0
2022/09/11 16:41:29,97,0.0,-0.07,0.0,-0.0,0.0,0.0,0.15,0.07,0.09,-0.01,-0.28,-0.01,-2.16,-0.0,1.5,67.85,67.83,72.17,72.15,0.0,0.0,0.0,1.0,0.0,0.0,0.0
2022/09/11 16:41:29,98,0.0,-0.07,0.0,-0.0,0.0,0.0,0.15,0.07,0.09,-0.01,-0.28,-0.01,-2.16,-0.0,1.5,67.85,67.83,72.17,72.15,0.0,0.0,0.0,1.0,0.0,0.0,0.0
2022/09/11 16:41:29,99,0.0,-0.07,0.0,-0.0,0.0,0.0,0.15,0.07,0.09,-0.01,-0.28,-0.01,-2.16,-0.0,1.5,67.85,67.83,72.17,72.15,0.0,0.0,0.0,1.0,0.0,0.0,0.0
2022/09/11 16:41:29,100,0.0,-0.07,0.0,-0.0,0.0,0.0,0.15,0.07,0.09,-0.01,-0.28,-0.01,-2.16,-0.0,1.5,67.85,67.83,72.17,72.15,0.0,0.0,0.0,1.0,0.0,0.0,0.0
2022/09/11 16:41:29,101,0.0,-0.07,0.0,-0.0,0.0,0.0,0.15,0.07,0.09,-0.01,-0.28,-0.01,-2.16,-0.0,1.5,67.85,67.83,72.17,72.15,0.0,0.0,0.0,1.0,0.0,0.0,0.0
2022/09/11 16:41:29,102,0.0,-0.07,0.0,-0.0,0.0,0.0,0.15,0.07,0.09,-0.01,-0.28,-0.01,-2.16,-0.0,1.5,67.85,67.83,72.17,72.15,0.0,0.0,0.0,1.0,0.0,0.0,0.0
2022/09/11 16:41:29,103,0.0,-0.07,0.0,-0.0,0.0,0.0,0.15,0.07,0.09,-0.01,-0.28,-0.01,-2.16,-0.0,1.5,67.85,67.83,72.17,72.15,0.0,0.0,0.0,1.0,0.0,0.0,0.0
2022/09/11 16:41:29,104,0.0,-0.07,0.0,-0.0,0.0,0.0,0.15,0.07,0.09,-0.01,-0.28,-0.01,-2.16,-0.0,1.5,67.85,67.83,72.17,72.15,0.0,0.0,0.0,1.0,0.0,0.0,0.0
2022/09/11 16:41:29,105,0.0,-0.07,0.0,-0.0,0.0,0.0,0.15,0.07,0.09,-0.01,-0.28,-0.01,-2.16,-0.0,1.5,67.85,67.83,72.17,72.15,0.0,0.0,0.0,1.0,0.0,0.0,0.0
2022/09/11 16:41:29,106,0.0,-0.07,0.0,-0.0,0.0,0.0,0.15,0.07,0.09,-0.01,-0.28,-0.01,-2.16,-0.0,1.5,67.85,67.83,72.17,72.15,0.0,0.0,0.0,1.0,0.0,0.0,0.0
2022/09/11 16:41:29,107,0.0,-0.07,0.0,-0.0,0.0,0.0,0.15,0.07,0.09,-0.01,-0.28,-0.01,-2.16,-0.0,1.5,67.85,67.83,72.17,72.15,0.0,0.0,0.0,1.0,0.0,0.0,0.0
2022/09/11 16:41:29,108,0.0,-0.07,0.0,-0.0,0.0,0.0,0.15,0.07,0.09,-0.01,-0.28,-0.01,-2.16,-0.0,1.5,67.85,67.83,72.17,72.15,0.0,0.0,0.0,1.0,0.0,0.0,0.0
2022/09/11 16:41:29,109,0.0,-0.07,0.0,-0.0,0.0,0.0,0.15,0.07,0.09,-0.01,-0.28,-0.01,-2.16,-0.0,1.5,67.85,67.83,72.17,72.15,0.0,0.0,0.0,1.0,0.0,0.0,0.0
2022/09/11 16:41:29,110,0.0,-0.07,0.0,-0.0,0.0,0.0,0.15,0.07,0.09,-0.01,-0.28,-0.01,-2.16,-0.0,1.5,67.85,67.83,72.17,72.15,0.0,0.0,0.0,1.0,0.0,0.0,0.0
2022/09/11 16:41:29,111,0.0,-0.07,0.0,-0.0,0.0,0.0,0.15,0.07,0.09,-0.01,-0.28,-0.01,-2.16,-0.0,1.5,67.85,67.83,72.17,72.15,0.0,0.0,0.0,1.0,0.0,0.0,0.0
2022/09/11 16:41:29,112,0.0,-0.07,0.0,-0.0,0.0,0.0,0.15,0.07,0.09,-0.01,-0.28,-0.01,-2.16,-0.0,1.5,67.85,67.83,72.17,72.15,0.0,0.0,0.0,1.0,0.0,0.0,0.0
2022/09/11 16:41:29,113,0.0,-0.07,0.0,-0.0,0.0,0.0,0.15,0.07,0.09,-0.01,-0.28,-0.01,-2.16,-0.0,1.5,67.85,67.83,72.17,72.15,0.0,0.0,0.0,1.0,0.0,0.0,0.0
2022/09/11 16:41:29,114,0.0,-0.07,0.0,-0.0,0.0,0.0,0.15,0.07,0.09,-0.01,-0.28,-0.01,-2.16,-0.0,1.5,67.85,67.83,72.17,72.15,0.0,0.0,0.0,1.0,0.0,0.0,0.0
2022/09/11 16:41:29,115,0.0,-0.07,0.0,-0.0,0.0,0.0,0.15,0.07,0.09,-0.01,-0.28,-0.01,-2.16,-0.0,1.5,67.85,67.83,72.17,72.15,0.0,0.0,0.0,1.0,0.0,0.0,0.0
2022/09/11 16:41:29,116,0.0,-0.07,0.0,-0.0,0.0,0.0,0.15,0.07,0.09,-0.01,-0.28,-0.01,-2.16,-0.0,1.5,67.85,67.83,72.17,72.15,0.0,0.0,0.0,1.0,0.0,0.0,0.0
2022/09/11 16:41:29,117,0.0,-0.07,0.0,-0.0,0.0,0.0,0.15,0.07,0.09,-0.01,-0.28,-0.01,-2.16,-0.0,1.5,67.85,67.83,72.17,72.15,0.0,0.0,0.0,1.0,0.0,0.0,0.0
2022/09/11 16:41:29,118,0.0,-0.07,0.0,-0.0,0.0,0.0,0.15,0.07,0.09,-0.01,-0.28,-0.01,-2.16,-0.0,1.5,67.85,67.83,72.17,72.15,0.0,0.0,0.0,1.0,0.0,0.0,0.0
2022/09/11 16:41:29,119,0.0,-0.07,0.0,-0.0,0.0,0.0,0.15,0.07,0.09,-0.01,-0.28,-0.01,-2.16,-0.0,1.5,67.85,67.83,72.17,72.15,0.0,0.0,0.0,1.0,0.0,0.0,0.0
2022/09/11 16:41:29,120,0.0,-0.07,0.0,-0.0,0.0,0.0,0.15,0.07,0.09,-0.01,-0.28,-0.01,-2.16,-0.0,1.5,67.85,67.83,72.17,72.15,0.0,0.0,0.0,1.0,0.0,0.0,0.0
2022/09/11 16:41:29,121,0.0,-0.07,0.0,-0.0,0.0,0.0,0.15,0.07,0.09,-0.01,-0.28,-0.01,-2.16,-0.0,1.5,67.85,67.83,72.17,72.15,0.0,0.0,0.0,1.0,0.0,0.0,0.0
2022/09/11 16:41:29,122,0.0,-0.07,0.0,-0.0,0.0,0.0,0.15,0.07,0.09,-0.01,-0.28,-0.01,-2.16,-0.0,1.5,67.85,67.83,72.17,72.15,0.0,0.0,0.0,1.0,0.0,0.0,0.0
2022/09/11 16:41:29,123,0.0,-0.07,0.0,-0.0,0.0,0.0,0.15,0.07,0.09,-0.01,-0.28,-0.01,-2.16,-0.0,1.5,67.85,67.83,72.17,72.15,0.0,0.0,0.0,1.0,0.0,0.0,0.0
2022/09/11 16:41:29,124,0.0,-0.07,0.0,-0.0,0.0,0.0,0.15,0.07,0.09,-0.01,-0.28,-0.01,-2.16,-0.0,1.5,67.85,67.83,72.17,72.15,0.0,0.0,0.0,1.0,0.0,0.0,0.0
2022/09/11 16:41:29,125,0.0,-0.07,0.0,-0.0,0.0,0.0,0.15,0.07,0.09,-0.01,-0.28,-0.01,-2.16,-0.0,1.5,67.85,67.83,72.17,72.15,0.0,0.0,0.0,1.0,0.0,0.0,0.0
2022/09/11 16:41:29,126,0.0,-0.07,0.0,-0.0,0.0,0.0,0.15,0.07,0.09,-0.01,-0.28,-0.01,-2.16,-0.0,1.5,67.85,67.83,72.17,72.15,0.0,0.0,0.0,1.0,0.0,0.0,0.0
2022/09/11 16:41:29,127,0.0,-0.07,0.0,-0.0,0.0,0.0,0.15,0.07,0.09,-0.01,-0.28,-0.01,-2.16,-0.0,1.5,67.85,67.83,72.17,72.15,0.0,0.0,0.0,1.0,0.0,0.0,0.0
2022/09/11 16:41:29,128,0.0,-0.07,0.0,-0.0,0.0,0.0,0.15,0.07,0.09,-0.01,-0.28,-0.01,-2.16,-0.0,1.5,67.85,67.83,72.17,72.15,0.0,0.0,0.0,1.0,0.0,0.0,0.0
2022/09/11 16:41:29,129,0.0,-0.07,0.0,-0.0,0.0,0.0,0.15,0.07,0.09,-0.01,-0.28,-0.01,-2.16,-0.0,1.5,67.85,67.83,72.17,72.15,0.0,0.0,0.0,1.0,0.0,0.0,0.0
2022/09/11 16:41:29,130,0.0,-0.07,0.0,-0.0,0.0,0.0,0.15,0.07,0.09,-0.01,-0.28,-0.01,-2.16,-0.0,1.5,67.85,67.83,72.17,72.15,0.0,0.0,0.0,1.0,0.0,0.0,0.0
2022/09/11 16:41:29,131,0.0,-0.07,0.0,-0.0,0.0,0.0,0.15,0.07,0.09,-0.01,-0.28,-0.01,-2.16,-0.0,1.5,67.85,67.83,72.17,72.15,0.0,0.0,0.0,1.0,0.0,0.0,0.0
2022/09/11 16:41:29,132,0.0,-0.07,0.0,-0.0,0.0,0.0,0.15,0.07,0.09,-0.01,-0.28,-0.01,-2.16,-0.0,1.5,67.85,67.83,72.17,72.15,0.0,0.0,0.0,1.0,0.0,0.0,0.0
2022/09/11 16:41:29,133,0.0,-0.07,0.0,-0.0,0.0,0.0,0.15,0.07,0.09,-0.01,-0.28,-0.01,-2.16,-0.0,1.5,67.85,67.83,72.17,72.15,0.0,0.0,0.0,1.0,0.0,0.0,0.0
2022/09/11 16:41:29,134,0.0,-0.07,0.0,-0.0,0.0,0.0,0.15,0.07,0.09,-0.01,-0.28,-0.01,-2.16,-0.0,1.5,67.85,67.83,72.17,72.15,0.0,0.0,0.0,1.0,0.0,0.0,0.0
2022/09/11 16:41:30,135,0.0,-0.07,0.0,-0.0,0.0,0.0,0.15,0.07,0.09,-0.01,-0.28,-0.01,-2.16,-0.0,1.5,67.85,67.83,72.17,72.15,0.0,0.0,0.0,1.0,0.0,0.0,0.0
2022/09/11 16:41:30,136,0.0,-0.07,0.0,-0.0,0.0,0.0,0.15,0.07,0.09,-0.01,-0.28,-0.01,-2.16,-0.0,1.5,67.85,67.83,72.17,72.15,0.0,0.0,0.0,1.0,0.0,0.0,0.0
2022/09/11 16:41:30,137,0.0,-0.07,0.0,-0.0,0.0,0.0,0.15,0.07,0.09,-0.01,-0.28,-0.01,-2.16,-0.0,1.5,67.85,67.83,72.17,72.15,0.0,0.0,0.0,1.0,0.0,0.0,0.0
2022/09/11 16:41:30,138,0.0,-0.07,0.0,-0.0,0.0,0.0,0.15,0.07,0.09,-0.01,-0.28,-0.01,-2.16,-0.0,1.5,67.85,67.83,72.17,72.15,0.0,0.0,0.0,1.0,0.0,0.0,0.0
2022/09/11 16:41:30,139,0.0,-0.07,0.0,-0.0,0.0,0.0,0.15,0.07,0.09,-0.01,-0.28,-0.01,-2.16,-0.0,1.5,67.85,67.83,72.17,72.15,0.0,0.0,0.0,1.0,0.0,0.0,0.0
2022/09/11 16:41:30,140,0.0,-0.07,0.0,-0.0,0.0,0.0,0.15,0.07,0.09,-0.01,-0.28,-0.01,-2.16,-0.0,1.5,67.85,67.83,72.17,72.15,0.0,0.0,0.0,1.0,0.0,0.0,0.0
2022/09/11 16:41:30,141,0.0,-0.07,0.0,-0.0,0.0,0.0,0.15,0.07,0.09,-0.01,-0.28,-0.01,-2.16,-0.0,1.5,67.85,67.83,72.17,72.15,0.0,0.0,0.0,1.0,0.0,0.0,0.0
2022/09/11 16:41:30,142,0.0,-0.07,0.0,-0.0,0.0,0.0,0.15,0.07,0.09,-0.01,-0.28,-0.01,-2.16,-0.0,1.5,67.85,67.83,72.17,72.15,0.0,0.0,0.0,1.0,0.0,0.0,0.0
2022/09/11 16:41:30,143,0.0,-0.07,0.0,-0.0,0.0,0.0,0.15,0.07,0.09,-0.01,-0.28,-0.01,-2.16,-0.0,1.5,67.85,67.83,72.17,72.15,0.0,0.0,0.0,1.0,0.0,0.0,0.0
2022/09/11 16:41:30,144,0.0,-0.07,0.0,-0.0,0.0,0.0,0.15,0.07,0.09,-0.01,-0.28,-0.01,-2.16,-0.0,1.5,67.85,67.83,72.17,72.15,0.0,0.0,0.0,1.0,0.0,0.0,0.0
2022/09/11 16:41:30,145,0.0,-0.07,0.0,-0.0,0.0,0.0,0.15,0.07,0.09,-0.01,-0.28,-0.01,-2.16,-0.0,1.5,67.85,67.83,72.17,72.15,0.0,0.0,0.0,1.0,0.0,0.0,0.0
2022/09/11 16:41:30,146,0.0,-0.07,0.0,-0.0,0.0,0.0,0.15,0.07,0.09,-0.01,-0.28,-0.01,-2.16,-0.0,1.5,67.85,67.83,72.17,72.15,0.0,0.0,0.0,1.0,0.0,0.0,0.0
2022/09/11 16:41:30,147,0.0,-0.07,0.0,-0.0,0.0,0.0,0.15,0.07,0.09,-0.01,-0.28,-0.01,-2.16,-0.0,1.5,67.85,67.83,72.17,72.15,0.0,0.0,0.0,1.0,0.0,0.0,0.0
2022/09/11 16:41:30,148,0.0,-0.07,0.0,-0.0,0.0,0.0,0.15,0.07,0.09,-0.01,-0.28,-0.01,-2.16,-0.0,1.5,67.85,67.83,72.17,72.15,0.0,0.0,0.0,1.0,0.0,0.0,0.0
2022/09/11 16:41:30,149,0.0,-0.07,0.0,-0.0,0.0,0.0,0.15,0.07,0.09,-0.01,-0.28,-0.01,-2.16,-0.0,1.5,67.85,67.83,72.17,72.15,0.0,0.0,0.0,1.0,0.0,0.0,0.0
2022/09/11 16:41:30,150,0.0,-0.07,0.0,-0.0,0.0,0.0,0.15,0.07,0.09,-0.01,-0.28,-0.01,-2.16,-0.0,1.5,67.85,67.83,72.17,72.15,0.0,0.0,0.0,1.0,0.0,0.0,0.0
2022/09/11 16:41:30,151,0.0,-0.07,0.0,-0.0,0.0,-0.0,0.15,0.07,0.09,-0.01,-0.28,-0.01,-2.16,-0.0,1.5,67.85,67.83,72.17,72.15,0.0,0.0,0.0,1.0,0.0,0.0,0.0
2022/09/11 16:41:30,152,0.0,-0.07,0.0,-0.0,0.0,-0.0,0.15,0.07,0.09,-0.01,-0.28,-0.01,-2.16,-0.0,1.5,67.85,67.83,72.17,72.15,0.0,0.0,0.0,1.0,0.0,0.0,0.0
2022/09/11 16:41:30,153,0.0,-0.07,0.0,-0.0,0.0,-0.0,0.15,0.07,0.09,-0.01,-0.28,-0.01,-2.16,-0.0,1.5,67.85,67.83,72.17,72.15,0.0,0.0,0.0,1.0,0.0,0.0,0.0
2022/09/11 16:41:30,154,0.0,-0.07,0.0,-0.0,0.0,-0.0,0.15,0.07,0.09,-0.01,-0.28,-0.01,-2.16,-0.0,1.5,67.85,67.83,72.17,72.15,0.0,0.0,0.0,1.0,0.0,0.0,0.0
2022/09/11 16:41:30,155,0.0,-0.07,0.0,-0.0,0.0,-0.0,0.15,0.07,0.09,-0.01,-0.28,-0.01,-2.16,-0.0,1.5,67.85,67.83,72.17,72.15,0.0,0.0,0.0,1.0,0.0,0.0,0.0
2022/09/11 16:41:30,156,0.0,-0.07,0.0,-0.0,0.0,-0.0,0.15,0.07,0.09,-0.01,-0.28,-0.01,-2.16,-0.0,1.5,67.85,67.83,72.17,72.15,0.0,0.0,0.0,1.0,0.0,0.0,0.0
2022/09/11 16:41:30,157,0.0,-0.07,0.0,-0.0,0.0,-0.0,0.15,0.07,0.09,-0.01,-0.28,-0.01,-2.16,-0.0,1.5,67.85,67.83,72.17,72.15,0.0,0.0,0.0,1.0,0.0,0.0,0.0
2022/09/11 16:41:30,158,0.0,-0.07,0.0,-0.0,0.0,-0.0,0.15,0.07,0.09,-0.01,-0.28,-0.01,-2.16,-0.0,1.5,67.85,67.83,72.17,72.15,0.0,0.0,0.0,1.0,0.0,0.0,0.0
2022/09/11 16:41:30,159,0.0,-0.07,0.0,-0.0,0.0,-0.0,0.15,0.07,0.09,-0.01,-0.28,-0.01,-2.16,-0.0,1.5,67.85,67.83,72.17,72.15,0.0,0.0,0.0,1.0,0.0,0.0,0.0
2022/09/11 16:41:30,160,0.0,-0.07,0.0,-0.0,0.0,-0.0,0.15,0.07,0.09,-0.01,-0.28,-0.01,-2.16,-0.0,1.5,67.85,67.83,72.17,72.15,0.0,0.0,0.0,1.0,0.0,0.0,0.0
2022/09/11 16:41:31,0,0.0,-0.07,0.0,0.0,-0.0,-0.0,0.15,0.07,0.11,-0.01,-0.28,-0.01,-2.16,-0.0,-0.44,0.0,0.0,0.0,0.0,18.7,8.75,13.73,0.0,0.0,0.0,0.0
2022/09/11 16:41:31,1,0.0,-0.07,0.0,0.0,-0.0,-0.0,0.15,0.07,0.11,-0.01,-0.28,-0.01,-2.16,-0.0,-0.03,0.0,0.0,0.0,0.0,-0.0,-0.0,-0.16,0.0,0.0,0.0,0.0
2022/09/11 16:41:31,2,0.0,-0.07,0.0,0.0,-0.0,-0.0,0.15,0.07,0.11,-0.01,-0.28,-0.01,-2.16,0.0,0.74,0.0,0.0,0.0,0.0,-0.0,-0.0,-0.23,0.0,0.0,0.0,0.0
2022/09/11 16:41:31,3,0.0,-0.07,0.0,0.0,-0.0,-0.0,0.15,0.07,0.1,-0.01,-0.28,-0.01,-2.16,0.0,1.24,0.0,0.0,0.0,0.0,-0.0,-0.0,-0.31,0.0,0.0,0.0,0.0
2022/09/11 16:41:31,4,0.0,-0.07,0.0,0.0,-0.0,-0.0,0.15,0.07,0.1,-0.01,-0.28,-0.01,-2.16,0.0,1.5,0.0,0.0,0.0,0.0,-0.0,-0.0,-0.39,0.0,0.0,0.0,0.0
2022/09/11 16:41:31,5,0.0,-0.07,0.0,0.0,-0.0,-0.0,0.15,0.07,0.1,-0.01,-0.28,-0.01,-2.16,0.0,1.5,0.0,0.0,0.0,0.0,-0.0,-0.0,-0.46,0.0,0.0,0.0,0.0
2022/09/11 16:41:31,6,0.0,-0.07,0.0,0.0,-0.0,-0.0,0.15,0.07,0.09,-0.01,-0.28,-0.01,-2.16,0.0,1.5,0.0,0.0,0.0,0.0,-0.0,-0.0,-0.54,0.0,0.0,0.0,0.0
2022/09/11 16:41:31,7,0.0,-0.07,0.0,0.0,-0.0,-0.0,0.15,0.07,0.09,-0.01,-0.28,-0.01,-2.16,0.0,1.5,0.0,0.0,0.0,0.0,-0.0,-0.0,-0.62,0.0,0.0,0.0,0.0
2022/09/11 16:41:31,8,0.0,-0.07,0.0,0.0,-0.0,-0.0,0.15,0.07,0.08,-0.01,-0.28,-0.01,-2.16,0.0,1.5,0.0,0.0,0.0,0.0,-0.0,-0.0,-0.69,0.0,0.0,0.0,0.0
2022/09/11 16:41:31,9,0.0,-0.07,0.0,0.0,-0.08,-0.0,0.15,0.07,0.09,-0.01,-0.28,-0.01,-2.72,0.0,-1.17,0.0,0.0,0.0,0.0,-0.01,-0.0,0.33,0.0,0.0,0.0,0.0
2022/09/11 16:41:31,10,0.0,-0.07,0.0,0.0,-0.08,-0.0,0.15,0.07,0.09,-0.01,-0.28,-0.01,-2.73,0.0,-1.17,0.0,0.0,0.0,0.0,-0.01,-0.0,0.25,0.0,0.0,0.0,0.0
2022/09/11 16:41:31,11,0.0,-0.07,0.0,0.0,-0.08,-0.0,0.15,0.07,0.09,-0.01,-0.28,-0.01,-2.75,0.0,-1.45,0.0,0.0,0.0,0.0,-0.0,-0.0,0.17,0.0,0.0,0.0,0.0
2022/09/11 16:41:31,12,0.0,-0.07,0.0,0.0,-0.07,-0.0,0.15,0.07,0.09,-0.01,-0.28,-0.01,-2.77,0.0,-1.45,0.0,0.0,0.0,0.0,-0.0,-0.0,0.09,0.0,0.0,0.0,0.0
2022/09/11 16:41:31,13,0.0,-0.07,0.0,0.0,-0.07,-0.0,0.15,0.07,0.09,-0.01,-0.28,-0.01,-2.79,0.0,-0.63,0.0,0.0,0.0,0.0,-0.0,-0.0,0.01,0.0,0.0,0.0,0.0
2022/09/11 16:41:31,14,0.0,-0.07,0.0,0.0,-0.07,-0.0,0.15,0.07,0.09,-0.01,-0.28,-0.01,-2.81,0.0,-0.63,0.0,0.0,0.0,0.0,-0.0,-0.0,-0.07,0.0,0.0,0.0,0.0
2022/09/11 16:41:31,15,0.0,-0.07,0.0,0.0,-0.07,-0.0,0.15,0.07,0.09,-0.01,-0.28,-0.01,-2.83,0.0,0.69,0.0,0.0,0.0,0.0,-0.0,-0.0,-0.14,0.0,0.0,0.0,0.0
2022/09/11 16:41:31,16,0.0,-0.07,0.0,0.0,-0.07,-0.0,0.15,0.07,0.09,-0.01,-0.28,-0.01,-2.84,0.0,0.83,0.0,0.0,0.0,0.0,-0.0,-0.0,-0.22,0.0,0.0,0.0,0.0
2022/09/11 16:41:31,17,0.0,-0.05,0.0,-0.0,2.44,-0.0,0.15,0.07,0.08,-0.01,-0.28,-0.01,15.45,-0.0,0.73,0.0,0.0,0.0,0.0,0.16,0.0,-0.21,0.0,0.0,0.0,0.0
2022/09/11 16:41:31,18,0.0,-0.06,0.0,0.0,-1.11,-0.0,0.15,0.07,0.09,-0.01,-0.28,-0.01,-9.75,0.0,-0.89,0.0,0.0,0.0,0.0,-0.07,-0.0,0.11,0.0,0.0,0.0,0.0
2022/09/11 16:41:31,19,0.0,-0.07,0.0,0.0,-1.11,0.0,0.15,0.07,0.09,-0.01,-0.28,-0.01,-10.02,-0.0,-0.42,0.0,0.0,0.0,0.0,-0.07,-0.0,0.03,0.0,0.0,0.0,0.0
2022/09/11 16:41:31,20,0.0,-0.07,0.0,-0.0,0.27,0.0,0.15,0.07,0.09,-0.01,-0.28,-0.01,-0.33,-0.0,-0.42,0.0,0.0,0.0,0.0,0.02,0.0,0.02,0.0,0.0,0.0,0.0
2022/09/11 16:41:31,21,0.0,-0.07,0.0,-0.0,0.03,0.0,0.15,0.07,0.09,-0.01,-0.28,-0.01,-2.0,-0.0,-0.4,0.0,0.0,0.0,0.0,0.0,0.0,0.0,0.0,0.0,0.0,0.0
2022/09/11 16:41:31,22,0.0,-0.07,0.0,-0.0,0.02,0.0,0.15,0.07,0.09,-0.01,-0.28,-0.01,-2.06,-0.0,-0.4,0.0,0.0,0.0,0.0,0.0,0.0,0.0,0.0,0.0,0.0,0.0
2022/09/11 16:41:31,23,0.0,-0.07,0.0,-0.0,0.01,0.0,0.15,0.07,0.09,-0.01,-0.28,-0.01,-2.08,-0.0,-0.35,0.0,0.0,0.0,0.0,0.0,0.0,0.0,0.0,0.0,0.0,0.0
2022/09/11 16:41:31,24,0.0,-0.07,0.0,-0.0,0.01,0.0,0.15,0.07,0.09,-0.01,-0.28,-0.01,-2.1,-0.0,-0.35,0.0,0.0,0.0,0.0,0.0,0.0,0.0,0.0,0.0,0.0,0.0
2022/09/11 16:41:31,25,0.0,-0.07,0.0,-0.0,0.01,0.0,0.15,0.07,0.09,-0.01,-0.28,-0.01,-2.11,-0.0,-0.35,0.0,0.0,0.0,0.0,0.0,0.0,0.0,0.0,0.0,0.0,0.0
2022/09/11 16:41:31,26,0.0,-0.07,0.0,-0.0,0.01,0.0,0.15,0.07,0.09,-0.01,-0.28,-0.01,-2.12,-0.0,-0.35,0.0,0.0,0.0,0.0,0.0,0.0,0.0,0.0,0.0,0.0,0.0
2022/09/11 16:41:31,27,0.0,-0.07,0.0,-0.0,0.01,0.0,0.15,0.07,0.09,-0.01,-0.28,-0.01,-2.13,-0.0,-0.35,0.0,0.0,0.0,0.0,0.0,0.0,0.0,0.0,0.0,0.0,0.0
2022/09/11 16:41:31,28,0.0,-0.07,0.0,-0.0,0.0,0.0,0.15,0.07,0.09,-0.01,-0.28,-0.01,-2.14,-0.0,-0.35,0.0,0.0,0.0,0.0,0.0,0.0,0.0,0.0,0.0,0.0,0.0
2022/09/11 16:41:31,29,0.0,-0.07,0.0,-0.0,0.0,0.0,0.15,0.07,0.09,-0.01,-0.28,-0.01,-2.14,-0.0,-0.35,0.0,0.0,0.0,0.0,0.0,0.0,0.0,0.0,0.0,0.0,0.0
2022/09/11 16:41:31,30,0.0,-0.07,0.0,-0.0,0.0,0.0,0.15,0.07,0.09,-0.01,-0.28,-0.01,-2.14,-0.0,-0.35,0.0,0.0,0.0,0.0,0.0,0.0,0.0,0.0,0.0,0.0,0.0
2022/09/11 16:41:31,31,0.0,-0.07,0.0,-0.0,0.0,0.0,0.15,0.07,0.09,-0.01,-0.28,-0.01,-2.15,-0.0,-0.35,0.0,0.0,0.0,0.0,0.0,0.0,0.0,0.0,0.0,0.0,0.0
2022/09/11 16:41:31,32,0.0,-0.07,0.0,-0.0,0.0,0.0,0.15,0.07,0.09,-0.01,-0.28,-0.01,-2.15,-0.0,-0.35,0.0,0.0,0.0,0.0,0.0,0.0,0.0,0.0,0.0,0.0,0.0
2022/09/11 16:41:31,33,0.0,-0.07,0.0,-0.0,0.0,0.0,0.15,0.07,0.09,-0.01,-0.28,-0.01,-2.15,-0.0,-0.35,0.0,0.0,0.0,0.0,0.0,0.0,0.0,0.0,0.0,0.0,0.0
2022/09/11 16:41:31,34,0.0,-0.07,0.0,-0.0,0.0,0.0,0.15,0.07,0.09,-0.01,-0.28,-0.01,-2.15,-0.0,-0.35,0.0,0.0,0.0,0.0,0.0,0.0,0.0,0.0,0.0,0.0,0.0
2022/09/11 16:41:31,35,0.0,-0.07,0.0,-0.0,0.0,0.0,0.15,0.07,0.09,-0.01,-0.28,-0.01,-2.16,-0.0,-0.35,0.0,0.0,0.0,0.0,0.0,0.0,0.0,0.0,0.0,0.0,0.0
2022/09/11 16:41:31,36,0.0,-0.07,0.0,-0.0,0.0,0.0,0.15,0.07,0.09,-0.01,-0.28,-0.01,-2.16,-0.0,-0.35,0.0,0.0,0.0,0.0,0.0,0.0,0.0,0.0,0.0,0.0,0.0
2022/09/11 16:41:31,37,0.0,-0.07,0.0,-0.0,0.0,0.0,0.15,0.07,0.09,-0.01,-0.28,-0.01,-2.16,-0.0,-0.35,0.0,0.0,0.0,0.0,0.0,0.0,0.0,0.0,0.0,0.0,0.0
2022/09/11 16:41:31,38,0.0,-0.07,0.0,-0.0,0.0,0.0,0.15,0.07,0.09,-0.01,-0.28,-0.01,-2.16,-0.0,-0.35,0.0,0.0,0.0,0.0,0.0,0.0,0.0,0.0,0.0,0.0,0.0
2022/09/11 16:41:31,39,0.0,-0.07,0.0,-0.0,0.0,0.0,0.15,0.07,0.09,-0.01,-0.28,-0.01,-2.16,-0.0,-0.35,0.0,0.0,0.0,0.0,0.0,0.0,0.0,0.0,0.0,0.0,0.0
2022/09/11 16:41:31,40,0.0,-0.07,0.0,-0.0,0.0,0.0,0.15,0.07,0.09,-0.01,-0.28,-0.01,-2.16,-0.0,-0.35,0.0,0.0,0.0,0.0,0.0,0.0,0.0,0.0,0.0,0.0,0.0
2022/09/11 16:41:31,41,0.0,-0.07,0.0,-0.0,0.0,0.0,0.15,0.07,0.09,-0.01,-0.28,-0.01,-2.16,-0.0,-0.35,0.0,0.0,0.0,0.0,0.0,0.0,0.0,0.0,0.0,0.0,0.0
2022/09/11 16:41:31,42,0.0,-0.07,0.0,-0.0,0.0,0.0,0.15,0.07,0.09,-0.01,-0.28,-0.01,-2.16,-0.0,-0.35,0.0,0.0,0.0,0.0,0.0,0.0,0.0,0.0,0.0,0.0,0.0
2022/09/11 16:41:31,43,0.0,-0.07,0.0,-0.0,0.0,0.0,0.15,0.07,0.09,-0.01,-0.28,-0.01,-2.16,-0.0,-0.35,0.0,0.0,0.0,0.0,0.0,0.0,0.0,0.0,0.0,0.0,0.0
2022/09/11 16:41:31,44,0.0,-0.07,0.0,-0.0,0.0,0.0,0.15,0.07,0.09,-0.01,-0.28,-0.01,-2.16,-0.0,-0.35,0.0,0.0,0.0,0.0,0.0,0.0,0.0,0.0,0.0,0.0,0.0
2022/09/11 16:41:31,45,0.0,-0.07,0.0,-0.0,0.0,0.0,0.15,0.07,0.09,-0.01,-0.28,-0.01,-2.16,-0.0,-0.35,0.0,0.0,0.0,0.0,0.0,0.0,0.0,0.0,0.0,0.0,0.0
2022/09/11 16:41:31,46,0.0,-0.07,0.0,-0.0,0.0,0.0,0.15,0.07,0.09,-0.01,-0.28,-0.01,-2.16,-0.0,-0.35,0.0,0.0,0.0,0.0,0.0,0.0,0.0,0.0,0.0,0.0,0.0
2022/09/11 16:41:31,47,0.0,-0.07,0.0,-0.0,0.0,0.0,0.15,0.07,0.09,-0.01,-0.28,-0.01,-2.16,-0.0,-0.35,0.0,0.0,0.0,0.0,0.0,0.0,0.0,0.0,0.0,0.0,0.0
2022/09/11 16:41:31,48,0.0,-0.07,0.0,-0.0,0.0,0.0,0.15,0.07,0.09,-0.01,-0.28,-0.01,-2.16,-0.0,-0.35,0.0,0.0,0.0,0.0,0.0,0.0,0.0,0.0,0.0,0.0,0.0
2022/09/11 16:41:31,49,0.0,-0.07,0.0,-0.0,0.0,0.0,0.15,0.07,0.09,-0.01,-0.28,-0.01,-2.16,-0.0,-0.35,0.0,0.0,0.0,0.0,0.0,0.0,0.0,0.0,0.0,0.0,0.0
2022/09/11 16:41:31,50,0.0,-0.07,0.0,-0.0,0.0,0.0,0.15,0.07,0.09,-0.01,-0.28,-0.01,-2.16,-0.0,-0.35,0.0,0.0,0.0,0.0,0.0,0.0,0.0,0.0,0.0,0.0,0.0
2022/09/11 16:41:31,51,0.0,-0.07,0.0,-0.0,0.0,0.0,0.15,0.07,0.09,-0.01,-0.28,-0.01,-2.16,-0.0,-0.35,0.0,0.0,0.0,0.0,0.0,0.0,0.0,0.0,0.0,0.0,0.0
2022/09/11 16:41:31,52,0.0,-0.07,0.0,-0.0,0.0,0.0,0.15,0.07,0.09,-0.01,-0.28,-0.01,-2.16,-0.0,-0.35,0.0,0.0,0.0,0.0,0.0,0.0,0.0,0.0,0.0,0.0,0.0
2022/09/11 16:41:31,53,0.0,-0.07,0.0,-0.0,0.0,0.0,0.15,0.07,0.09,-0.01,-0.28,-0.01,-2.16,-0.0,-0.35,0.0,0.0,0.0,0.0,0.0,0.0,0.0,0.0,0.0,0.0,0.0
2022/09/11 16:41:31,54,0.0,-0.07,0.0,-0.0,0.0,0.0,0.15,0.07,0.09,-0.01,-0.28,-0.01,-2.16,-0.0,-0.35,0.0,0.0,0.0,0.0,0.0,0.0,0.0,0.0,0.0,0.0,0.0
2022/09/11 16:41:31,55,0.0,-0.07,0.0,-0.0,0.0,0.0,0.15,0.07,0.09,-0.01,-0.28,-0.01,-2.16,-0.0,-0.35,0.0,0.0,0.0,0.0,0.0,0.0,0.0,0.0,0.0,0.0,0.0
2022/09/11 16:41:31,56,0.0,-0.07,0.0,-0.0,0.0,0.0,0.15,0.07,0.09,-0.01,-0.28,-0.01,-2.16,-0.0,-0.35,0.0,0.0,0.0,0.0,0.0,0.0,0.0,0.0,0.0,0.0,0.0
2022/09/11 16:41:31,57,0.0,-0.07,0.0,-0.0,0.0,0.0,0.15,0.07,0.09,-0.01,-0.28,-0.01,-2.16,-0.0,-0.35,0.0,0.0,0.0,0.0,0.0,0.0,0.0,0.0,0.0,0.0,0.0
2022/09/11 16:41:31,58,0.0,-0.07,0.0,-0.0,0.0,0.0,0.15,0.07,0.09,-0.01,-0.28,-0.01,-2.16,-0.0,-0.35,0.0,0.0,0.0,0.0,0.0,0.0,0.0,0.0,0.0,0.0,0.0
2022/09/11 16:41:31,59,0.0,-0.07,0.0,-0.0,0.0,0.0,0.15,0.07,0.09,-0.01,-0.28,-0.01,-2.16,-0.0,-0.35,0.0,0.0,0.0,0.0,0.0,0.0,0.0,0.0,0.0,0.0,0.0
2022/09/11 16:41:31,60,0.0,-0.07,0.0,-0.0,0.0,0.0,0.15,0.07,0.09,-0.01,-0.28,-0.01,-2.16,-0.0,-0.35,0.0,0.0,0.0,0.0,0.0,0.0,0.0,0.0,0.0,0.0,0.0
2022/09/11 16:41:31,61,0.0,-0.07,0.0,-0.0,0.0,0.0,0.15,0.07,0.09,-0.01,-0.28,-0.01,-2.16,-0.0,-0.35,0.0,0.0,0.0,0.0,0.0,0.0,0.0,0.0,0.0,0.0,0.0
2022/09/11 16:41:31,62,0.0,-0.07,0.0,-0.0,0.0,0.0,0.15,0.07,0.09,-0.01,-0.28,-0.01,-2.16,-0.0,-0.35,0.0,0.0,0.0,0.0,0.0,0.0,0.0,0.0,0.0,0.0,0.0
2022/09/11 16:41:32,63,0.0,-0.07,0.0,-0.0,0.0,0.0,0.15,0.07,0.09,-0.01,-0.28,-0.01,-2.16,-0.0,-0.35,0.0,0.0,0.0,0.0,0.0,0.0,0.0,0.0,0.0,0.0,0.0
2022/09/11 16:41:32,64,0.0,-0.07,0.0,-0.0,0.0,0.0,0.15,0.07,0.09,-0.01,-0.28,-0.01,-2.16,-0.0,-0.35,0.0,0.0,0.0,0.0,0.0,0.0,0.0,0.0,0.0,0.0,0.0
2022/09/11 16:41:32,65,0.0,-0.07,0.0,-0.0,0.0,0.0,0.15,0.07,0.09,-0.01,-0.28,-0.01,-2.16,-0.0,-0.35,0.0,0.0,0.0,0.0,0.0,0.0,0.0,0.0,0.0,0.0,0.0
2022/09/11 16:41:32,66,0.0,-0.07,0.0,-0.0,0.0,0.0,0.15,0.07,0.09,-0.01,-0.28,-0.01,-2.16,-0.0,-0.35,0.0,0.0,0.0,0.0,0.0,0.0,0.0,0.0,0.0,0.0,0.0
2022/09/11 16:41:32,67,0.0,-0.07,0.0,-0.0,0.0,0.0,0.15,0.07,0.09,-0.01,-0.28,-0.01,-2.16,-0.0,-0.35,0.0,0.0,0.0,0.0,0.0,0.0,0.0,0.0,0.0,0.0,0.0
2022/09/11 16:41:32,68,0.0,-0.07,0.0,-0.0,0.0,0.0,0.15,0.07,0.09,-0.01,-0.28,-0.01,-2.16,-0.0,-0.35,0.0,0.0,0.0,0.0,0.0,0.0,0.0,0.0,0.0,0.0,0.0
2022/09/11 16:41:32,69,0.0,-0.07,0.0,-0.0,0.0,0.0,0.15,0.07,0.09,-0.01,-0.28,-0.01,-2.16,-0.0,-0.35,0.0,0.0,0.0,0.0,0.0,0.0,0.0,0.0,0.0,0.0,0.0
2022/09/11 16:41:32,70,0.0,-0.07,0.0,-0.0,0.0,0.0,0.15,0.07,0.09,-0.01,-0.28,-0.01,-2.16,-0.0,-0.35,0.0,0.0,0.0,0.0,0.0,0.0,0.0,0.0,0.0,0.0,0.0
2022/09/11 16:41:32,71,0.0,-0.07,0.0,-0.0,0.0,0.0,0.15,0.07,0.09,-0.01,-0.28,-0.01,-2.16,-0.0,-0.35,0.0,0.0,0.0,0.0,0.0,0.0,0.0,0.0,0.0,0.0,0.0
2022/09/11 16:41:32,72,0.0,-0.07,0.0,-0.0,0.0,0.0,0.15,0.07,0.09,-0.01,-0.28,-0.01,-2.16,-0.0,-0.35,0.0,0.0,0.0,0.0,0.0,0.0,0.0,0.0,0.0,0.0,0.0
2022/09/11 16:41:32,73,0.0,-0.07,0.0,-0.0,0.0,0.0,0.15,0.07,0.09,-0.01,-0.28,-0.01,-2.16,-0.0,-0.35,0.0,0.0,0.0,0.0,0.0,0.0,0.0,0.0,0.0,0.0,0.0
2022/09/11 16:41:32,74,0.0,-0.07,0.0,-0.0,0.0,0.0,0.15,0.07,0.09,-0.01,-0.28,-0.01,-2.16,-0.0,-0.35,0.0,0.0,0.0,0.0,0.0,0.0,0.0,0.0,0.0,0.0,0.0
2022/09/11 16:41:32,75,0.0,-0.07,0.0,-0.0,0.0,0.0,0.15,0.07,0.09,-0.01,-0.28,-0.01,-2.16,-0.0,-0.35,0.0,0.0,0.0,0.0,0.0,0.0,0.0,0.0,0.0,0.0,0.0
2022/09/11 16:41:32,76,0.0,-0.07,0.0,-0.0,0.0,0.0,0.15,0.07,0.09,-0.01,-0.28,-0.01,-2.16,-0.0,-0.35,0.0,0.0,0.0,0.0,0.0,0.0,0.0,0.0,0.0,0.0,0.0
2022/09/11 16:41:32,77,0.0,-0.07,0.0,-0.0,0.0,0.0,0.15,0.07,0.09,-0.01,-0.28,-0.01,-2.16,-0.0,-0.35,0.0,0.0,0.0,0.0,0.0,0.0,0.0,0.0,0.0,0.0,0.0
2022/09/11 16:41:32,78,0.0,-0.07,0.0,-0.0,0.0,0.0,0.15,0.07,0.09,-0.01,-0.28,-0.01,-2.16,-0.0,-0.35,0.0,0.0,0.0,0.0,0.0,0.0,0.0,0.0,0.0,0.0,0.0
2022/09/11 16:41:32,79,0.0,-0.07,0.0,-0.0,0.0,0.0,0.15,0.07,0.09,-0.01,-0.28,-0.01,-2.16,-0.0,-0.35,0.0,0.0,0.0,0.0,0.0,0.0,0.0,0.0,0.0,0.0,0.0
2022/09/11 16:41:32,80,0.0,-0.07,0.0,-0.0,0.0,0.0,0.15,0.07,0.09,-0.01,-0.28,-0.01,-2.16,-0.0,-0.35,0.0,0.0,0.0,0.0,0.0,0.0,0.0,0.0,0.0,0.0,0.0
2022/09/11 16:41:32,81,0.0,-0.07,0.0,-0.0,0.0,0.0,0.15,0.07,0.09,-0.01,-0.28,-0.01,-2.16,-0.0,-0.35,0.0,0.0,0.0,0.0,0.0,0.0,0.0,0.0,0.0,0.0,0.0
2022/09/11 16:41:32,82,0.0,-0.07,0.0,-0.0,0.0,0.0,0.15,0.07,0.09,-0.01,-0.28,-0.01,-2.16,-0.0,-0.35,0.0,0.0,0.0,0.0,0.0,0.0,0.0,0.0,0.0,0.0,0.0
2022/09/11 16:41:32,83,0.0,-0.07,0.0,-0.0,0.0,0.0,0.15,0.07,0.09,-0.01,-0.28,-0.01,-2.16,-0.0,-0.35,0.0,0.0,0.0,0.0,0.0,0.0,0.0,0.0,0.0,0.0,0.0
2022/09/11 16:41:32,84,0.0,-0.07,0.0,-0.0,0.0,0.0,0.15,0.07,0.09,-0.01,-0.28,-0.01,-2.16,-0.0,-0.35,0.0,0.0,0.0,0.0,0.0,0.0,0.0,0.0,0.0,0.0,0.0
2022/09/11 16:41:32,85,0.0,-0.07,0.0,-0.0,0.0,0.0,0.15,0.07,0.09,-0.01,-0.28,-0.01,-2.16,-0.0,-0.35,0.0,0.0,0.0,0.0,0.0,0.0,0.0,0.0,0.0,0.0,0.0
2022/09/11 16:41:32,86,0.0,-0.07,0.0,-0.0,0.0,0.0,0.15,0.07,0.09,-0.01,-0.28,-0.01,-2.16,-0.0,-0.35,0.0,0.0,0.0,0.0,0.0,0.0,0.0,0.0,0.0,0.0,0.0
2022/09/11 16:41:32,87,0.0,-0.07,0.0,-0.0,0.0,0.0,0.15,0.07,0.09,-0.01,-0.28,-0.01,-2.16,-0.0,-0.35,0.0,0.0,0.0,0.0,0.0,0.0,0.0,0.0,0.0,0.0,0.0
2022/09/11 16:41:32,88,0.0,-0.07,0.0,-0.0,0.0,0.0,0.15,0.07,0.09,-0.01,-0.28,-0.01,-2.16,-0.0,-0.35,0.0,0.0,0.0,0.0,0.0,0.0,0.0,0.0,0.0,0.0,0.0
2022/09/11 16:41:32,89,0.0,-0.07,0.0,-0.0,0.0,0.0,0.15,0.07,0.09,-0.01,-0.28,-0.01,-2.16,-0.0,-0.35,0.0,0.0,0.0,0.0,0.0,0.0,0.0,0.0,0.0,0.0,0.0
2022/09/11 16:41:32,90,0.0,-0.07,0.0,-0.0,0.0,0.0,0.15,0.07,0.09,-0.01,-0.28,-0.01,-2.16,-0.0,-0.35,0.0,0.0,0.0,0.0,0.0,0.0,0.0,0.0,0.0,0.0,0.0
2022/09/11 16:41:32,91,0.0,-0.07,0.0,-0.0,0.0,0.0,0.15,0.07,0.09,-0.01,-0.28,-0.01,-2.16,-0.0,-0.35,0.0,0.0,0.0,0.0,0.0,0.0,0.0,0.0,0.0,0.0,0.0
2022/09/11 16:41:32,92,0.0,-0.07,0.0,-0.0,0.0,0.0,0.15,0.07,0.09,-0.01,-0.28,-0.01,-2.16,-0.0,-0.35,0.0,0.0,0.0,0.0,0.0,0.0,0.0,0.0,0.0,0.0,0.0
2022/09/11 16:41:32,93,0.0,-0.07,0.0,-0.0,0.0,0.0,0.15,0.07,0.09,-0.01,-0.28,-0.01,-2.16,-0.0,-0.35,0.0,0.0,0.0,0.0,0.0,0.0,0.0,0.0,0.0,0.0,0.0
2022/09/11 16:41:32,94,0.0,-0.07,0.0,-0.0,0.0,0.0,0.15,0.07,0.09,-0.01,-0.28,-0.01,-2.16,-0.0,-0.35,0.0,0.0,0.0,0.0,0.0,0.0,0.0,0.0,0.0,0.0,0.0
2022/09/11 16:41:32,95,0.0,-0.07,0.0,-0.0,0.0,0.0,0.15,0.07,0.09,-0.01,-0.28,-0.01,-2.16,-0.0,-0.35,0.0,0.0,0.0,0.0,0.0,0.0,0.0,0.0,0.0,0.0,0.0
2022/09/11 16:41:32,96,0.0,-0.07,0.0,-0.0,0.0,0.0,0.15,0.07,0.09,-0.01,-0.28,-0.01,-2.16,-0.0,-0.35,0.0,0.0,0.0,0.0,0.0,0.0,0.0,0.0,0.0,0.0,0.0
2022/09/11 16:41:32,97,0.0,-0.07,0.0,-0.0,0.0,0.0,0.15,0.07,0.09,-0.01,-0.28,-0.01,-2.16,-0.0,-0.35,0.0,0.0,0.0,0.0,0.0,0.0,0.0,0.0,0.0,0.0,0.0
2022/09/11 16:41:32,98,0.0,-0.07,0.0,-0.0,0.0,0.0,0.15,0.07,0.09,-0.01,-0.28,-0.01,-2.16,-0.0,-0.35,0.0,0.0,0.0,0.0,0.0,0.0,0.0,0.0,0.0,0.0,0.0
2022/09/11 16:41:32,99,0.0,-0.07,0.0,-0.0,0.0,0.0,0.15,0.07,0.09,-0.01,-0.28,-0.01,-2.16,-0.0,-0.35,0.0,0.0,0.0,0.0,0.0,0.0,0.0,0.0,0.0,0.0,0.0
2022/09/11 16:41:32,100,0.0,-0.07,0.0,-0.0,0.0,0.0,0.15,0.07,0.09,-0.01,-0.28,-0.01,-2.16,-0.0,-0.35,0.0,0.0,0.0,0.0,0.0,0.0,0.0,0.0,0.0,0.0,0.0
2022/09/11 16:41:32,101,0.0,-0.07,0.0,-0.0,0.0,0.0,0.15,0.07,0.09,-0.01,-0.28,-0.01,-2.16,-0.0,-0.35,0.0,0.0,0.0,0.0,0.0,0.0,0.0,0.0,0.0,0.0,0.0
2022/09/11 16:41:32,102,0.0,-0.07,0.0,-0.0,0.0,0.0,0.15,0.07,0.09,-0.01,-0.28,-0.01,-2.16,-0.0,-0.35,0.0,0.0,0.0,0.0,0.0,0.0,0.0,0.0,0.0,0.0,0.0
2022/09/11 16:41:32,103,0.0,-0.07,0.0,-0.0,0.0,0.0,0.15,0.07,0.09,-0.01,-0.28,-0.01,-2.16,-0.0,-0.35,0.0,0.0,0.0,0.0,0.0,0.0,0.0,0.0,0.0,0.0,0.0
2022/09/11 16:41:32,104,0.0,-0.07,0.0,-0.0,0.0,0.0,0.15,0.07,0.09,-0.01,-0.28,-0.01,-2.16,-0.0,1.5,67.85,67.83,72.17,72.15,0.0,0.0,0.0,1.0,0.0,0.0,0.0
2022/09/11 16:41:32,105,0.0,-0.07,0.0,-0.0,0.0,-0.0,0.15,0.07,0.09,-0.01,-0.28,-0.01,-2.16,-0.0,1.5,67.85,67.83,72.17,72.15,0.0,0.0,-0.0,1.0,0.0,0.0,0.0
2022/09/11 16:41:32,106,0.0,-0.07,0.0,-0.0,-0.0,0.0,0.15,0.07,0.09,-0.01,-0.28,-0.01,-2.16,-0.0,1.5,67.85,67.83,72.17,72.15,-0.0,0.0,0.0,1.0,0.0,0.0,0.0
2022/09/11 16:41:32,107,0.0,-0.07,0.0,-0.0,-0.0,0.0,0.15,0.07,0.09,-0.01,-0.28,-0.01,-2.16,-0.0,1.5,67.85,67.83,72.17,72.15,-0.0,0.0,0.0,1.0,0.0,0.0,0.0
2022/09/11 16:41:32,108,0.0,-0.07,0.0,-0.0,-0.0,0.0,0.15,0.07,0.09,-0.01,-0.28,-0.01,-2.16,-0.0,1.5,67.85,67.83,72.17,72.15,-0.0,0.0,0.0,1.0,0.0,0.0,0.0
2022/09/11 16:41:32,109,0.0,-0.07,0.0,-0.0,-0.0,0.0,0.15,0.07,0.09,-0.01,-0.28,-0.01,-2.16,-0.0,1.5,67.85,67.83,72.17,72.15,-0.0,0.0,0.0,1.0,0.0,0.0,0.0
2022/09/11 16:41:32,110,0.0,-0.07,0.0,-0.0,-0.0,0.0,0.15,0.07,0.09,-0.01,-0.28,-0.01,-2.16,-0.0,1.5,67.85,67.83,72.17,72.15,-0.0,0.0,0.0,1.0,0.0,0.0,0.0
2022/09/11 16:41:32,111,0.0,-0.07,0.0,-0.0,-0.0,0.0,0.15,0.07,0.09,-0.01,-0.28,-0.01,-2.16,-0.0,1.5,67.85,67.83,72.17,72.15,-0.0,0.0,0.0,1.0,0.0,0.0,0.0
2022/09/11 16:41:32,112,0.0,-0.07,0.0,-0.0,-0.0,0.0,0.15,0.07,0.09,-0.01,-0.28,-0.01,-2.16,-0.0,1.5,67.85,67.83,72.17,72.15,-0.0,0.0,0.0,1.0,0.0,0.0,0.0
2022/09/11 16:41:32,113,0.0,-0.07,0.0,0.0,-0.0,-0.0,0.15,0.07,0.09,-0.01,-0.28,-0.01,-2.16,-0.0,1.5,67.85,67.83,72.17,72.15,-0.0,-0.0,0.0,1.0,0.0,0.0,0.0
2022/09/11 16:41:32,114,0.0,-0.07,0.0,0.0,-0.0,-0.0,0.15,0.07,0.09,-0.01,-0.28,-0.01,-2.16,-0.0,1.5,67.85,67.83,72.17,72.15,-0.0,-0.0,0.0,1.0,0.0,0.0,0.0
2022/09/11 16:41:33,115,0.0,-0.07,0.0,0.0,-0.0,-0.0,0.15,0.07,0.09,-0.01,-0.28,-0.01,-2.16,-0.0,1.5,67.85,67.83,72.17,72.15,-0.0,-0.0,0.0,1.0,0.0,0.0,0.0
2022/09/11 16:41:33,116,0.0,-0.07,0.0,0.0,-0.0,-0.0,0.15,0.07,0.09,-0.01,-0.28,-0.01,-2.16,-0.0,1.5,67.85,67.83,72.17,72.15,-0.0,-0.0,0.0,1.0,0.0,0.0,0.0
2022/09/11 16:41:33,117,0.0,-0.07,0.0,0.0,-0.0,-0.0,0.15,0.07,0.09,-0.01,-0.28,-0.01,-2.16,-0.0,1.5,67.85,67.83,72.17,72.15,-0.0,-0.0,0.0,1.0,0.0,0.0,0.0
2022/09/11 16:41:33,118,0.0,-0.07,0.0,0.0,-0.0,-0.0,0.15,0.07,0.09,-0.01,-0.28,-0.01,-2.16,-0.0,1.5,67.85,67.83,72.17,72.15,-0.0,-0.0,0.0,1.0,0.0,0.0,0.0
2022/09/11 16:41:33,119,0.0,-0.07,0.0,0.0,-0.0,-0.0,0.15,0.07,0.09,-0.01,-0.28,-0.01,-2.16,-0.0,1.5,67.85,67.83,72.17,72.15,-0.0,-0.0,0.0,1.0,0.0,0.0,0.0
2022/09/11 16:41:33,120,0.0,-0.07,0.0,0.0,-0.0,-0.0,0.15,0.07,0.09,-0.01,-0.28,-0.01,-2.16,-0.0,1.5,67.85,67.83,72.17,72.15,-0.0,-0.0,0.0,1.0,0.0,0.0,0.0
2022/09/11 16:41:33,121,0.0,-0.07,0.0,0.0,0.0,-0.0,0.15,0.07,0.09,-0.01,-0.28,-0.01,-2.16,-0.0,1.5,67.85,67.83,72.17,72.15,0.0,-0.0,0.0,1.0,0.0,0.0,0.0
2022/09/11 16:41:33,122,0.0,-0.07,0.0,0.0,0.0,-0.0,0.15,0.07,0.09,-0.01,-0.28,-0.01,-2.16,-0.0,1.5,67.85,67.83,72.17,72.15,0.0,-0.0,0.0,1.0,0.0,0.0,0.0
2022/09/11 16:41:33,123,0.0,-0.07,0.0,0.0,0.0,-0.0,0.15,0.07,0.09,-0.01,-0.28,-0.01,-2.16,-0.0,1.5,67.85,67.83,72.17,72.15,0.0,-0.0,0.0,1.0,0.0,0.0,0.0
2022/09/11 16:41:33,124,0.0,-0.07,0.0,0.0,0.0,-0.0,0.15,0.07,0.09,-0.01,-0.28,-0.01,-2.16,-0.0,1.5,67.85,67.83,72.17,72.15,0.0,-0.0,0.0,1.0,0.0,0.0,0.0
2022/09/11 16:41:33,125,0.0,-0.07,0.0,0.0,0.0,-0.0,0.15,0.07,0.09,-0.01,-0.28,-0.01,-2.16,-0.0,1.5,67.85,67.83,72.17,72.15,0.0,-0.0,0.0,1.0,0.0,0.0,0.0
2022/09/11 16:41:33,126,0.0,-0.07,0.0,0.0,0.0,-0.0,0.15,0.07,0.09,-0.01,-0.28,-0.01,-2.16,-0.0,1.5,67.85,67.83,72.17,72.15,0.0,-0.0,0.0,1.0,0.0,0.0,0.0
2022/09/11 16:41:33,127,0.0,-0.07,0.0,0.0,0.0,-0.0,0.15,0.07,0.09,-0.01,-0.28,-0.01,-2.16,-0.0,1.5,67.85,67.83,72.17,72.15,0.0,-0.0,0.0,1.0,0.0,0.0,0.0
2022/09/11 16:41:33,128,0.0,-0.07,0.0,0.0,0.0,0.0,0.15,0.07,0.09,-0.01,-0.28,-0.01,-2.16,-0.0,1.5,67.85,67.83,72.17,72.15,0.0,-0.0,0.0,1.0,0.0,0.0,0.0
2022/09/11 16:41:33,129,0.0,-0.07,0.0,-0.0,0.0,0.0,0.15,0.07,0.09,-0.01,-0.28,-0.01,-2.16,-0.0,1.5,67.85,67.83,72.17,72.15,0.0,0.0,0.0,1.0,0.0,0.0,0.0
2022/09/11 16:41:33,130,0.0,-0.07,0.0,-0.0,0.0,0.0,0.15,0.07,0.09,-0.01,-0.28,-0.01,-2.16,-0.0,1.5,67.85,67.83,72.17,72.15,0.0,0.0,0.0,1.0,0.0,0.0,0.0
2022/09/11 16:41:33,131,0.0,-0.07,0.0,-0.0,0.0,0.0,0.15,0.07,0.09,-0.01,-0.28,-0.01,-2.16,-0.0,1.5,67.85,67.83,72.17,72.15,0.0,0.0,0.0,1.0,0.0,0.0,0.0
2022/09/11 16:41:33,132,0.0,-0.07,0.0,-0.0,0.0,0.0,0.15,0.07,0.09,-0.01,-0.28,-0.01,-2.16,-0.0,1.5,67.85,67.83,72.17,72.15,0.0,0.0,0.0,1.0,0.0,0.0,0.0
2022/09/11 16:41:33,133,0.0,-0.07,0.0,-0.0,0.0,0.0,0.15,0.07,0.09,-0.01,-0.28,-0.01,-2.16,-0.0,1.5,67.85,67.83,72.17,72.15,0.0,0.0,0.0,1.0,0.0,0.0,0.0
2022/09/11 16:41:33,134,0.0,-0.07,0.0,-0.0,0.0,0.0,0.15,0.07,0.09,-0.01,-0.28,-0.01,-2.16,-0.0,1.5,67.85,67.83,72.17,72.15,0.0,0.0,0.0,1.0,0.0,0.0,0.0
2022/09/11 16:41:33,135,0.0,-0.07,0.0,-0.0,0.0,0.0,0.15,0.07,0.09,-0.01,-0.28,-0.01,-2.16,-0.0,1.5,67.85,67.83,72.17,72.15,0.0,0.0,0.0,1.0,0.0,0.0,0.0
2022/09/11 16:41:33,136,0.0,-0.07,0.0,-0.0,0.0,0.0,0.15,0.07,0.09,-0.01,-0.28,-0.01,-2.16,-0.0,1.5,67.85,67.83,72.17,72.15,0.0,0.0,0.0,1.0,0.0,0.0,0.0
2022/09/11 16:41:33,137,0.0,-0.07,0.0,-0.0,0.0,0.0,0.15,0.07,0.09,-0.01,-0.28,-0.01,-2.16,-0.0,1.5,67.85,67.83,72.17,72.15,0.0,0.0,0.0,1.0,0.0,0.0,0.0
2022/09/11 16:41:33,138,0.0,-0.07,0.0,-0.0,0.0,0.0,0.15,0.07,0.09,-0.01,-0.28,-0.01,-2.16,-0.0,1.5,67.85,67.83,72.17,72.15,0.0,0.0,0.0,1.0,0.0,0.0,0.0
2022/09/11 16:41:33,139,0.0,-0.07,0.0,-0.0,0.0,0.0,0.15,0.07,0.09,-0.01,-0.28,-0.01,-2.16,-0.0,1.5,67.85,67.83,72.17,72.15,0.0,0.0,0.0,1.0,0.0,0.0,0.0
2022/09/11 16:41:33,140,0.0,-0.07,0.0,-0.0,0.0,0.0,0.15,0.07,0.09,-0.01,-0.28,-0.01,-2.16,-0.0,1.5,67.85,67.83,72.17,72.15,0.0,0.0,0.0,1.0,0.0,0.0,0.0
2022/09/11 16:41:33,141,0.0,-0.07,0.0,-0.0,0.0,0.0,0.15,0.07,0.09,-0.01,-0.28,-0.01,-2.16,-0.0,1.5,67.85,67.83,72.17,72.15,0.0,0.0,0.0,1.0,0.0,0.0,0.0
2022/09/11 16:41:33,142,0.0,-0.07,0.0,-0.0,0.0,0.0,0.15,0.07,0.09,-0.01,-0.28,-0.01,-2.16,-0.0,1.5,67.85,67.83,72.17,72.15,0.0,0.0,0.0,1.0,0.0,0.0,0.0
2022/09/11 16:41:33,143,0.0,-0.07,0.0,-0.0,0.0,0.0,0.15,0.07,0.09,-0.01,-0.28,-0.01,-2.16,-0.0,1.5,67.85,67.83,72.17,72.15,0.0,0.0,0.0,1.0,0.0,0.0,0.0
2022/09/11 16:41:33,144,0.0,-0.07,0.0,-0.0,0.0,0.0,0.15,0.07,0.09,-0.01,-0.28,-0.01,-2.16,-0.0,1.5,67.85,67.83,72.17,72.15,0.0,0.0,0.0,1.0,0.0,0.0,0.0
2022/09/11 16:41:33,145,0.0,-0.07,0.0,-0.0,0.0,0.0,0.15,0.07,0.09,-0.01,-0.28,-0.01,-2.16,-0.0,1.5,67.85,67.83,72.17,72.15,0.0,0.0,0.0,1.0,0.0,0.0,0.0
2022/09/11 16:41:33,146,0.0,-0.07,0.0,-0.0,0.0,0.0,0.15,0.07,0.09,-0.01,-0.28,-0.01,-2.16,-0.0,1.5,67.85,67.83,72.17,72.15,0.0,0.0,0.0,1.0,0.0,0.0,0.0
2022/09/11 16:41:33,147,0.0,-0.07,0.0,-0.0,0.0,0.0,0.15,0.07,0.09,-0.01,-0.28,-0.01,-2.16,-0.0,1.5,67.85,67.83,72.17,72.15,0.0,0.0,0.0,1.0,0.0,0.0,0.0
2022/09/11 16:41:33,148,0.0,-0.07,0.0,-0.0,0.0,0.0,0.15,0.07,0.09,-0.01,-0.28,-0.01,-2.16,-0.0,1.5,67.85,67.83,72.17,72.15,0.0,0.0,0.0,1.0,0.0,0.0,0.0
2022/09/11 16:41:33,149,0.0,-0.07,0.0,-0.0,0.0,0.0,0.15,0.07,0.09,-0.01,-0.28,-0.01,-2.16,-0.0,1.5,67.85,67.83,72.17,72.15,0.0,0.0,0.0,1.0,0.0,0.0,0.0
2022/09/11 16:41:33,150,0.0,-0.07,0.0,-0.0,0.0,0.0,0.15,0.07,0.09,-0.01,-0.28,-0.01,-2.16,-0.0,1.5,67.85,67.83,72.17,72.15,0.0,0.0,0.0,1.0,0.0,0.0,0.0
2022/09/11 16:41:33,151,0.0,-0.07,0.0,-0.0,0.0,0.0,0.15,0.07,0.09,-0.01,-0.28,-0.01,-2.16,-0.0,1.5,67.85,67.83,72.17,72.15,0.0,0.0,0.0,1.0,0.0,0.0,0.0
2022/09/11 16:41:33,152,0.0,-0.07,0.0,-0.0,0.0,0.0,0.15,0.07,0.09,-0.01,-0.28,-0.01,-2.16,-0.0,1.5,67.85,67.83,72.17,72.15,0.0,0.0,0.0,1.0,0.0,0.0,0.0
2022/09/11 16:41:33,153,0.0,-0.07,0.0,-0.0,0.0,0.0,0.15,0.07,0.09,-0.01,-0.28,-0.01,-2.16,-0.0,1.5,67.85,67.83,72.17,72.15,0.0,0.0,0.0,1.0,0.0,0.0,0.0
2022/09/11 16:41:33,154,0.0,-0.07,0.0,-0.0,0.0,0.0,0.15,0.07,0.09,-0.01,-0.28,-0.01,-2.16,-0.0,1.5,67.85,67.83,72.17,72.15,0.0,0.0,0.0,1.0,0.0,0.0,0.0
2022/09/11 16:41:33,155,0.0,-0.07,0.0,-0.0,0.0,0.0,0.15,0.07,0.09,-0.01,-0.28,-0.01,-2.16,-0.0,1.5,67.85,67.83,72.17,72.15,0.0,0.0,0.0,1.0,0.0,0.0,0.0
2022/09/11 16:41:33,156,0.0,-0.07,0.0,-0.0,0.0,0.0,0.15,0.07,0.09,-0.01,-0.28,-0.01,-2.16,-0.0,1.5,67.85,67.83,72.17,72.15,0.0,0.0,0.0,1.0,0.0,0.0,0.0
2022/09/11 16:41:33,157,0.0,-0.07,0.0,-0.0,0.0,0.0,0.15,0.07,0.09,-0.01,-0.28,-0.01,-2.16,-0.0,1.5,67.85,67.83,72.17,72.15,0.0,0.0,0.0,1.0,0.0,0.0,0.0
2022/09/11 16:41:33,158,0.0,-0.07,0.0,-0.0,0.0,0.0,0.15,0.07,0.09,-0.01,-0.28,-0.01,-2.16,-0.0,1.5,67.85,67.83,72.17,72.15,0.0,0.0,0.0,1.0,0.0,0.0,0.0
2022/09/11 16:41:33,159,0.0,-0.07,0.0,-0.0,0.0,0.0,0.15,0.07,0.09,-0.01,-0.28,-0.01,-2.16,-0.0,1.5,67.85,67.83,72.17,72.15,0.0,0.0,0.0,1.0,0.0,0.0,0.0
2022/09/11 16:41:33,160,0.0,-0.07,0.0,-0.0,0.0,0.0,0.15,0.07,0.09,-0.01,-0.28,-0.01,-2.16,-0.0,1.5,67.85,67.83,72.17,72.15,0.0,0.0,0.0,1.0,0.0,0.0,0.0
2022/09/11 16:41:33,161,0.0,-0.07,0.0,-0.0,0.0,0.0,0.15,0.07,0.09,-0.01,-0.28,-0.01,-2.16,-0.0,1.5,67.85,67.83,72.17,72.15,0.0,0.0,0.0,1.0,0.0,0.0,0.0
2022/09/11 16:41:33,162,0.0,-0.07,0.0,-0.0,0.0,0.0,0.15,0.07,0.09,-0.01,-0.28,-0.01,-2.16,-0.0,1.5,67.85,67.83,72.17,72.15,0.0,0.0,0.0,1.0,0.0,0.0,0.0
2022/09/11 16:41:33,163,0.0,-0.07,0.0,-0.0,0.0,0.0,0.15,0.07,0.09,-0.01,-0.28,-0.01,-2.16,-0.0,1.5,67.85,67.83,72.17,72.15,0.0,0.0,0.0,1.0,0.0,0.0,0.0
2022/09/11 16:41:33,164,0.0,-0.07,0.0,-0.0,0.0,0.0,0.15,0.07,0.09,-0.01,-0.28,-0.01,-2.16,-0.0,1.5,67.85,67.83,72.17,72.15,0.0,0.0,0.0,1.0,0.0,0.0,0.0
2022/09/11 16:41:33,165,0.0,-0.07,0.0,-0.0,0.0,0.0,0.15,0.07,0.09,-0.01,-0.28,-0.01,-2.16,-0.0,1.5,67.85,67.83,72.17,72.15,0.0,0.0,0.0,1.0,0.0,0.0,0.0
2022/09/11 16:41:33,166,0.0,-0.07,0.0,-0.0,0.0,0.0,0.15,0.07,0.09,-0.01,-0.28,-0.01,-2.16,-0.0,1.5,67.85,67.83,72.17,72.15,0.0,0.0,0.0,1.0,0.0,0.0,0.0
2022/09/11 16:41:33,167,0.0,-0.07,0.0,-0.0,0.0,0.0,0.15,0.07,0.09,-0.01,-0.28,-0.01,-2.16,-0.0,1.5,67.85,67.83,72.17,72.15,0.0,0.0,0.0,1.0,0.0,0.0,0.0
2022/09/11 16:41:33,168,0.0,-0.07,0.0,-0.0,0.0,0.0,0.15,0.07,0.09,-0.01,-0.28,-0.01,-2.16,-0.0,1.5,67.85,67.83,72.17,72.15,0.0,0.0,0.0,1.0,0.0,0.0,0.0
2022/09/11 16:41:33,169,0.0,-0.07,0.0,-0.0,0.0,0.0,0.15,0.07,0.09,-0.01,-0.28,-0.01,-2.16,-0.0,1.5,67.85,67.83,72.17,72.15,0.0,0.0,0.0,1.0,0.0,0.0,0.0
2022/09/11 16:41:33,170,0.0,-0.07,0.0,-0.0,0.0,0.0,0.15,0.07,0.09,-0.01,-0.28,-0.01,-2.16,-0.0,1.5,67.85,67.83,72.17,72.15,0.0,0.0,0.0,1.0,0.0,0.0,0.0
2022/09/11 16:41:33,171,0.0,-0.07,0.0,-0.0,0.0,0.0,0.15,0.07,0.09,-0.01,-0.28,-0.01,-2.16,-0.0,1.5,67.85,67.83,72.17,72.15,0.0,0.0,0.0,1.0,0.0,0.0,0.0
2022/09/11 16:41:33,172,0.0,-0.07,0.0,-0.0,0.0,0.0,0.15,0.07,0.09,-0.01,-0.28,-0.01,-2.16,-0.0,1.5,67.85,67.83,72.17,72.15,0.0,0.0,0.0,1.0,0.0,0.0,0.0
2022/09/11 16:41:33,173,0.0,-0.07,0.0,-0.0,0.0,0.0,0.15,0.07,0.09,-0.01,-0.28,-0.01,-2.16,-0.0,1.5,67.85,67.83,72.17,72.15,0.0,0.0,0.0,1.0,0.0,0.0,0.0
2022/09/11 16:41:33,174,0.0,-0.07,0.0,-0.0,0.0,0.0,0.15,0.07,0.09,-0.01,-0.28,-0.01,-2.16,-0.0,1.5,67.85,67.83,72.17,72.15,0.0,0.0,0.0,1.0,0.0,0.0,0.0
2022/09/11 16:41:33,175,0.0,-0.07,0.0,-0.0,0.0,0.0,0.15,0.07,0.09,-0.01,-0.28,-0.01,-2.16,-0.0,1.5,67.85,67.83,72.17,72.15,0.0,0.0,0.0,1.0,0.0,0.0,0.0
2022/09/11 16:41:33,176,0.0,-0.07,0.0,-0.0,0.0,0.0,0.15,0.07,0.09,-0.01,-0.28,-0.01,-2.16,-0.0,1.5,67.85,67.83,72.17,72.15,0.0,0.0,0.0,1.0,0.0,0.0,0.0
2022/09/11 16:41:33,177,0.0,-0.07,0.0,-0.0,0.0,0.0,0.15,0.07,0.09,-0.01,-0.28,-0.01,-2.16,-0.0,1.5,67.85,67.83,72.17,72.15,0.0,0.0,0.0,1.0,0.0,0.0,0.0
2022/09/11 16:41:34,178,0.0,-0.07,0.0,-0.0,0.0,0.0,0.15,0.07,0.09,-0.01,-0.28,-0.01,-2.16,-0.0,1.5,67.85,67.83,72.17,72.15,0.0,0.0,0.0,1.0,0.0,0.0,0.0
2022/09/11 16:41:34,179,0.0,-0.07,0.0,-0.0,0.0,0.0,0.15,0.07,0.09,-0.01,-0.28,-0.01,-2.16,-0.0,1.5,67.85,67.83,72.17,72.15,0.0,0.0,0.0,1.0,0.0,0.0,0.0
2022/09/11 16:41:34,180,0.0,-0.07,0.0,-0.0,0.0,0.0,0.15,0.07,0.09,-0.01,-0.28,-0.01,-2.16,-0.0,1.5,67.85,67.83,72.17,72.15,0.0,0.0,0.0,1.0,0.0,0.0,0.0
2022/09/11 16:41:34,181,0.0,-0.07,0.0,-0.0,0.0,0.0,0.15,0.07,0.09,-0.01,-0.28,-0.01,-2.16,-0.0,1.5,67.85,67.83,72.17,72.15,0.0,0.0,0.0,1.0,0.0,0.0,0.0
2022/09/11 16:41:34,182,0.0,-0.07,0.0,-0.0,0.0,0.0,0.15,0.07,0.09,-0.01,-0.28,-0.01,-2.16,-0.0,1.5,67.85,67.83,72.17,72.15,0.0,0.0,0.0,1.0,0.0,0.0,0.0
2022/09/11 16:41:34,183,0.0,-0.07,0.0,-0.0,0.0,0.0,0.15,0.07,0.09,-0.01,-0.28,-0.01,-2.16,-0.0,1.5,67.85,67.83,72.17,72.15,0.0,0.0,0.0,1.0,0.0,0.0,0.0
2022/09/11 16:41:34,184,0.0,-0.07,0.0,-0.0,0.0,0.0,0.15,0.07,0.09,-0.01,-0.28,-0.01,-2.16,-0.0,1.5,67.85,67.83,72.17,72.15,0.0,0.0,0.0,1.0,0.0,0.0,0.0
2022/09/11 16:41:34,185,0.0,-0.07,0.0,-0.0,0.0,0.0,0.15,0.07,0.09,-0.01,-0.28,-0.01,-2.16,-0.0,1.5,67.85,67.83,72.17,72.15,0.0,0.0,0.0,1.0,0.0,0.0,0.0
2022/09/11 16:41:34,186,0.0,-0.07,0.0,-0.0,0.0,0.0,0.15,0.07,0.09,-0.01,-0.28,-0.01,-2.16,-0.0,1.5,67.85,67.83,72.17,72.15,0.0,0.0,0.0,1.0,0.0,0.0,0.0
2022/09/11 16:41:34,187,0.0,-0.07,0.0,-0.0,0.0,0.0,0.15,0.07,0.09,-0.01,-0.28,-0.01,-2.16,-0.0,1.5,67.85,67.83,72.17,72.15,0.0,0.0,0.0,1.0,0.0,0.0,0.0
2022/09/11 16:41:34,188,0.0,-0.07,0.0,-0.0,0.0,0.0,0.15,0.07,0.09,-0.01,-0.28,-0.01,-2.16,-0.0,1.5,67.85,67.83,72.17,72.15,0.0,0.0,0.0,1.0,0.0,0.0,0.0
2022/09/11 16:41:34,189,0.0,-0.07,0.0,-0.0,0.0,0.0,0.15,0.07,0.09,-0.01,-0.28,-0.01,-2.16,-0.0,1.5,67.85,67.83,72.17,72.15,0.0,0.0,0.0,1.0,0.0,0.0,0.0
2022/09/11 16:41:34,190,0.0,-0.07,0.0,-0.0,0.0,0.0,0.15,0.07,0.09,-0.01,-0.28,-0.01,-2.16,-0.0,1.5,67.85,67.83,72.17,72.15,0.0,0.0,0.0,1.0,0.0,0.0,0.0
2022/09/11 16:41:34,191,0.0,-0.07,0.0,-0.0,0.0,0.0,0.15,0.07,0.09,-0.01,-0.28,-0.01,-2.16,-0.0,1.5,67.85,67.83,72.17,72.15,0.0,0.0,0.0,1.0,0.0,0.0,0.0
2022/09/11 16:41:34,192,0.0,-0.07,0.0,-0.0,0.0,0.0,0.15,0.07,0.09,-0.01,-0.28,-0.01,-2.16,-0.0,1.5,67.85,67.83,72.17,72.15,0.0,0.0,0.0,1.0,0.0,0.0,0.0
2022/09/11 16:41:34,193,0.0,-0.07,0.0,-0.0,0.0,0.0,0.15,0.07,0.09,-0.01,-0.28,-0.01,-2.16,-0.0,1.5,67.85,67.83,72.17,72.15,0.0,0.0,0.0,1.0,0.0,0.0,0.0
2022/09/11 16:41:34,194,0.0,-0.07,0.0,-0.0,0.0,0.0,0.15,0.07,0.09,-0.01,-0.28,-0.01,-2.16,-0.0,1.5,67.85,67.83,72.17,72.15,0.0,0.0,0.0,1.0,0.0,0.0,0.0
2022/09/11 16:41:34,195,0.0,-0.07,0.0,-0.0,0.0,0.0,0.15,0.07,0.09,-0.01,-0.28,-0.01,-2.16,-0.0,1.5,67.85,67.83,72.17,72.15,0.0,0.0,0.0,1.0,0.0,0.0,0.0
2022/09/11 16:41:34,196,0.0,-0.07,0.0,-0.0,0.0,0.0,0.15,0.07,0.09,-0.01,-0.28,-0.01,-2.16,-0.0,1.5,67.85,67.83,72.17,72.15,0.0,0.0,0.0,1.0,0.0,0.0,0.0
2022/09/11 16:41:34,197,0.0,-0.07,0.0,-0.0,0.0,0.0,0.15,0.07,0.09,-0.01,-0.28,-0.01,-2.16,-0.0,1.5,67.85,67.83,72.17,72.15,0.0,0.0,0.0,1.0,0.0,0.0,0.0
2022/09/11 16:41:34,198,0.0,-0.07,0.0,-0.0,0.0,0.0,0.15,0.07,0.09,-0.01,-0.28,-0.01,-2.16,-0.0,1.5,67.85,67.83,72.17,72.15,0.0,0.0,0.0,1.0,0.0,0.0,0.0
2022/09/11 16:41:34,199,0.0,-0.07,0.0,-0.0,0.0,0.0,0.15,0.07,0.09,-0.01,-0.28,-0.01,-2.16,-0.0,1.5,67.85,67.83,72.17,72.15,0.0,0.0,0.0,1.0,0.0,0.0,0.0
2022/09/11 16:41:34,200,0.0,-0.07,0.0,-0.0,0.0,0.0,0.15,0.07,0.09,-0.01,-0.28,-0.01,-2.16,-0.0,1.5,67.85,67.83,72.17,72.15,0.0,0.0,0.0,1.0,0.0,0.0,0.0
2022/09/11 16:41:34,201,0.0,-0.07,0.0,-0.0,0.0,0.0,0.15,0.07,0.09,-0.01,-0.28,-0.01,-2.16,-0.0,1.5,67.85,67.83,72.17,72.15,0.0,0.0,0.0,1.0,0.0,0.0,0.0
2022/09/11 16:41:34,202,0.0,-0.07,0.0,-0.0,0.0,0.0,0.15,0.07,0.09,-0.01,-0.28,-0.01,-2.16,-0.0,1.5,67.85,67.83,72.17,72.15,0.0,0.0,0.0,1.0,0.0,0.0,0.0
2022/09/11 16:41:34,203,0.0,-0.07,0.0,-0.0,0.0,0.0,0.15,0.07,0.09,-0.01,-0.28,-0.01,-2.16,-0.0,1.5,67.85,67.83,72.17,72.15,0.0,0.0,0.0,1.0,0.0,0.0,0.0
2022/09/11 16:41:34,204,0.0,-0.07,0.0,-0.0,0.0,0.0,0.15,0.07,0.09,-0.01,-0.28,-0.01,-2.16,-0.0,1.5,67.85,67.83,72.17,72.15,0.0,0.0,0.0,1.0,0.0,0.0,0.0
2022/09/11 16:41:34,205,0.0,-0.07,0.0,-0.0,0.0,0.0,0.15,0.07,0.09,-0.01,-0.28,-0.01,-2.16,-0.0,1.5,67.85,67.83,72.17,72.15,0.0,0.0,0.0,1.0,0.0,0.0,0.0
2022/09/11 16:41:34,206,0.0,-0.07,0.0,-0.0,0.0,0.0,0.15,0.07,0.09,-0.01,-0.28,-0.01,-2.16,-0.0,1.5,67.85,67.83,72.17,72.15,0.0,0.0,0.0,1.0,0.0,0.0,0.0
2022/09/11 16:41:34,207,0.0,-0.07,0.0,-0.0,0.0,0.0,0.15,0.07,0.09,-0.01,-0.28,-0.01,-2.16,-0.0,1.5,67.85,67.83,72.17,72.15,0.0,0.0,0.0,1.0,0.0,0.0,0.0
2022/09/11 16:41:34,208,0.0,-0.07,0.0,-0.0,0.0,0.0,0.15,0.07,0.09,-0.01,-0.28,-0.01,-2.16,-0.0,1.5,67.85,67.83,72.17,72.15,0.0,0.0,0.0,1.0,0.0,0.0,0.0
2022/09/11 16:41:34,209,0.0,-0.07,0.0,-0.0,0.0,0.0,0.15,0.07,0.09,-0.01,-0.28,-0.01,-2.16,-0.0,1.5,67.85,67.83,72.17,72.15,0.0,0.0,0.0,1.0,0.0,0.0,0.0
2022/09/11 16:41:34,210,0.0,-0.07,0.0,-0.0,0.0,0.0,0.15,0.07,0.09,-0.01,-0.28,-0.01,-2.16,-0.0,1.5,67.85,67.83,72.17,72.15,0.0,0.0,0.0,1.0,0.0,0.0,0.0
2022/09/11 16:41:34,211,0.0,-0.07,0.0,-0.0,0.0,0.0,0.15,0.07,0.09,-0.01,-0.28,-0.01,-2.16,-0.0,1.5,67.85,67.83,72.17,72.15,0.0,0.0,0.0,1.0,0.0,0.0,0.0
2022/09/11 16:41:34,212,0.0,-0.07,0.0,-0.0,0.0,0.0,0.15,0.07,0.09,-0.01,-0.28,-0.01,-2.16,-0.0,1.5,67.85,67.83,72.17,72.15,0.0,0.0,0.0,1.0,0.0,0.0,0.0
2022/09/11 16:41:34,213,0.0,-0.07,0.0,-0.0,0.0,0.0,0.15,0.07,0.09,-0.01,-0.28,-0.01,-2.16,-0.0,1.5,67.85,67.83,72.17,72.15,0.0,0.0,0.0,1.0,0.0,0.0,0.0
2022/09/11 16:41:34,214,0.0,-0.07,0.0,-0.0,0.0,0.0,0.15,0.07,0.09,-0.01,-0.28,-0.01,-2.16,-0.0,1.5,67.85,67.83,72.17,72.15,0.0,0.0,0.0,1.0,0.0,0.0,0.0
2022/09/11 16:41:34,215,0.0,-0.07,0.0,-0.0,0.0,0.0,0.15,0.07,0.09,-0.01,-0.28,-0.01,-2.16,-0.0,1.5,67.85,67.83,72.17,72.15,0.0,0.0,0.0,1.0,0.0,0.0,0.0
2022/09/11 16:41:34,216,0.0,-0.07,0.0,-0.0,0.0,0.0,0.15,0.07,0.09,-0.01,-0.28,-0.01,-2.16,-0.0,1.5,67.85,67.83,72.17,72.15,0.0,0.0,0.0,1.0,0.0,0.0,0.0
2022/09/11 16:41:34,217,0.0,-0.07,0.0,-0.0,0.0,0.0,0.15,0.07,0.09,-0.01,-0.28,-0.01,-2.16,-0.0,1.5,67.85,67.83,72.17,72.15,0.0,0.0,0.0,1.0,0.0,0.0,0.0
2022/09/11 16:41:34,218,0.0,-0.07,0.0,-0.0,0.0,0.0,0.15,0.07,0.09,-0.01,-0.28,-0.01,-2.16,-0.0,1.5,67.85,67.83,72.17,72.15,0.0,0.0,0.0,1.0,0.0,0.0,0.0
2022/09/11 16:41:34,219,0.0,-0.07,0.0,-0.0,0.0,0.0,0.15,0.07,0.09,-0.01,-0.28,-0.01,-2.16,-0.0,1.5,67.85,67.83,72.17,72.15,0.0,0.0,0.0,1.0,0.0,0.0,0.0
2022/09/11 16:41:34,220,0.0,-0.07,0.0,-0.0,0.0,0.0,0.15,0.07,0.09,-0.01,-0.28,-0.01,-2.16,-0.0,1.5,67.85,67.83,72.17,72.15,0.0,0.0,0.0,1.0,0.0,0.0,0.0
2022/09/11 16:41:34,221,0.0,-0.07,0.0,-0.0,0.0,0.0,0.15,0.07,0.09,-0.01,-0.28,-0.01,-2.16,-0.0,1.5,67.85,67.83,72.17,72.15,0.0,0.0,0.0,1.0,0.0,0.0,0.0
2022/09/11 16:41:34,222,0.0,-0.07,0.0,-0.0,0.0,-0.0,0.15,0.07,0.09,-0.01,-0.28,-0.01,-2.16,-0.0,1.5,67.85,67.83,72.17,72.15,0.0,0.0,0.0,1.0,0.0,0.0,0.0
2022/09/11 16:41:34,223,0.0,-0.07,0.0,-0.0,0.0,-0.0,0.15,0.07,0.09,-0.01,-0.28,-0.01,-2.16,-0.0,1.5,67.85,67.83,72.17,72.15,0.0,0.0,0.0,1.0,0.0,0.0,0.0
2022/09/11 16:41:34,224,0.0,-0.07,0.0,-0.0,0.0,-0.0,0.15,0.07,0.09,-0.01,-0.28,-0.01,-2.16,-0.0,1.5,67.85,67.83,72.17,72.15,0.0,0.0,0.0,1.0,0.0,0.0,0.0
2022/09/11 16:41:34,225,0.0,-0.07,0.0,-0.0,0.0,-0.0,0.15,0.07,0.09,-0.01,-0.28,-0.01,-2.16,-0.0,1.5,67.85,67.83,72.17,72.15,0.0,0.0,0.0,1.0,0.0,0.0,0.0
2022/09/11 16:41:34,226,0.0,-0.07,0.0,-0.0,0.0,-0.0,0.15,0.07,0.09,-0.01,-0.28,-0.01,-2.16,-0.0,1.5,67.85,67.83,72.17,72.15,0.0,0.0,0.0,1.0,0.0,0.0,0.0
2022/09/11 16:41:34,227,0.0,-0.07,0.0,-0.0,0.0,-0.0,0.15,0.07,0.09,-0.01,-0.28,-0.01,-2.16,-0.0,1.5,67.85,67.83,72.17,72.15,0.0,0.0,0.0,1.0,0.0,0.0,0.0
2022/09/11 16:41:34,228,0.0,-0.07,0.0,-0.0,0.0,-0.0,0.15,0.07,0.09,-0.01,-0.28,-0.01,-2.16,-0.0,1.5,67.85,67.83,72.17,72.15,0.0,0.0,0.0,1.0,0.0,0.0,0.0
2022/09/11 16:41:34,229,0.0,-0.07,0.0,-0.0,0.0,-0.0,0.15,0.07,0.09,-0.01,-0.28,-0.01,-2.16,-0.0,1.5,67.85,67.83,72.17,72.15,0.0,0.0,0.0,1.0,0.0,0.0,0.0
2022/09/11 16:41:34,230,0.0,-0.07,0.0,-0.0,0.0,-0.0,0.15,0.07,0.09,-0.01,-0.28,-0.01,-2.16,-0.0,1.5,67.85,67.83,72.17,72.15,0.0,0.0,0.0,1.0,0.0,0.0,0.0
2022/09/11 16:41:34,231,0.0,-0.07,0.0,-0.0,0.0,-0.0,0.15,0.07,0.09,-0.01,-0.28,-0.01,-2.16,-0.0,1.5,67.85,67.83,72.17,72.15,0.0,0.0,0.0,1.0,0.0,0.0,0.0
2022/09/11 16:41:34,232,0.0,-0.07,0.0,-0.0,0.0,-0.0,0.15,0.07,0.09,-0.01,-0.28,-0.01,-2.16,-0.0,1.5,67.85,67.83,72.17,72.15,0.0,0.0,0.0,1.0,0.0,0.0,0.0
2022/09/11 16:41:34,233,0.0,-0.07,0.0,-0.0,0.0,-0.0,0.15,0.07,0.09,-0.01,-0.28,-0.01,-2.16,-0.0,1.5,67.85,67.83,72.17,72.15,0.0,0.0,0.0,1.0,0.0,0.0,0.0
2022/09/11 16:41:34,234,0.0,-0.07,0.0,-0.0,0.0,-0.0,0.15,0.07,0.09,-0.01,-0.28,-0.01,-2.16,-0.0,1.5,67.85,67.83,72.17,72.15,0.0,0.0,0.0,1.0,0.0,0.0,0.0
2022/09/11 16:41:34,235,0.0,-0.07,0.0,-0.0,0.0,-0.0,0.15,0.07,0.09,-0.01,-0.28,-0.01,-2.16,-0.0,1.5,67.85,67.83,72.17,72.15,0.0,0.0,0.0,1.0,0.0,0.0,0.0
2022/09/11 16:41:34,236,0.0,-0.07,0.0,-0.0,0.0,-0.0,0.15,0.07,0.09,-0.01,-0.28,-0.01,-2.16,-0.0,1.5,67.85,67.83,72.17,72.15,0.0,0.0,0.0,1.0,0.0,0.0,0.0
2022/09/11 16:41:34,237,0.0,-0.07,0.0,-0.0,0.0,-0.0,0.15,0.07,0.09,-0.01,-0.28,-0.01,-2.16,-0.0,1.5,67.85,67.83,72.17,72.15,0.0,0.0,0.0,1.0,0.0,0.0,0.0
2022/09/11 16:41:34,238,0.0,-0.07,0.0,-0.0,0.0,-0.0,0.15,0.07,0.09,-0.01,-0.28,-0.01,-2.16,-0.0,1.5,67.85,67.83,72.17,72.15,0.0,0.0,0.0,1.0,0.0,0.0,0.0
